id	type	woeId	label	wikiId	longitude	latitude	population	stateLabel	stateId	countryLabel	countryId
c22e8aefd0015bcf4e8fd333d1ad4f27	StateAdminArea	7153350	Abruzzo	Abruzzo	13.9009	42.2888	1307919			Italy	1007e1b7f894dfbf72a0eaa80f3bc57e
4ec96adb9cc39333f3d2024b28f2503f	StateAdminArea	2347594	Ohio	Ohio	-82.78995	40.29147	11689100			United States	09d4bca31e2fd8b0f57f79f85ed42bd8
9891739094756d2605946c867b32ad28	Country	23424750	Austria	Austria	13.34577	47.69651	8902600				
a168e5860b7dcf26280b4b79606adcae	CountyAdminArea		Östergötland County	%C3%96sterg%C3%B6tland_County	15.238037	58.528126	456550			Sweden	c8f4261f9f46e6465709e17ebea7a92b
6b2eb450290fde9e498cf4d068fda710	StateAdminArea	2345756	Punjab, India	Punjab,_India	75.40457	31.02375	27743338			India	7d31e0da1ab99fe8b08a22118e2f402b
a4a4aee163d49169b5b7b6147728d26e	CityTown	12587707	San Francisco	San_Francisco	-122.44354	37.76742	881549	California	356779a9a1696714480f57fa3fb66d4c	United States	09d4bca31e2fd8b0f57f79f85ed42bd8
c844c19bdbe33b9c547d94dd580ea642	Island	12506137	Tasmania	Tasmania	146.48323	-42.14234	535500	Van Diemen's Land	30dbfeef6bcd6031a53e13d52b6e53ae	Australia	4442e4af0916f53a07fb8ca9a49b98ed
