id	type	woeId	label	wikiId	longitude	latitude	population	parentId
29001,_Alcolu,_South_Carolina,_South_Carolina	PostalZip	12769954	29001, Alcolu, South Carolina, South Carolina		-80.17248	33.78135		Alcolu,_South_Carolina
29002,_Ballentine,_South_Carolina,_South_Carolina	PostalZip	12769955	29002, Ballentine, South Carolina, South Carolina		-81.23749	34.1241		Ballentine,_South_Carolina
29003,_Bamberg,_South_Carolina,_South_Carolina	PostalZip	12769956	29003, Bamberg, South Carolina, South Carolina		-81.0182	33.24506		Bamberg,_South_Carolina
29009,_Bethune,_South_Carolina,_South_Carolina	PostalZip	12769958	29009, Bethune, South Carolina, South Carolina		-80.37334	34.43617		Bethune,_South_Carolina
29010,_Bishopville,_South_Carolina,_South_Carolina	PostalZip	12769959	29010, Bishopville, South Carolina, South Carolina		-80.26608	34.2125		Bishopville,_South_Carolina
29016,_Blythewood,_South_Carolina,_South_Carolina	PostalZip	12769962	29016, Blythewood, South Carolina, South Carolina		-80.99585	34.20187		Blythewood,_South_Carolina
29018,_Bowman,_South_Carolina,_South_Carolina	PostalZip	12769963	29018, Bowman, South Carolina, South Carolina		-80.65091	33.34433		Bowman,_South_Carolina
29020,_Camden_station_(South_Carolina),_South_Carolina	PostalZip	12769964	29020, Camden station (South Carolina), South Carolina		-80.59811	34.31386		Camden_station_(South_Carolina)
29030,_Cameron,_South_Carolina,_South_Carolina	PostalZip	12769965	29030, Cameron, South Carolina, South Carolina		-80.65475	33.58115		Cameron,_South_Carolina
29031,_Carlisle,_South_Carolina,_South_Carolina	PostalZip	12769966	29031, Carlisle, South Carolina, South Carolina		-81.41836	34.60659		Carlisle,_South_Carolina
29033,_Cayce,_South_Carolina,_South_Carolina	PostalZip	12769968	29033, Cayce, South Carolina, South Carolina		-81.06081	33.95769		Cayce,_South_Carolina
29036,_Chapin,_South_Carolina,_South_Carolina	PostalZip	12769969	29036, Chapin, South Carolina, South Carolina		-81.33318	34.1324		Chapin,_South_Carolina
29039,_Cordova,_South_Carolina,_South_Carolina	PostalZip	12769972	29039, Cordova, South Carolina, South Carolina		-80.90385	33.41448		Cordova,_South_Carolina
29040,_Dalzell,_South_Carolina,_South_Carolina	PostalZip	12769973	29040, Dalzell, South Carolina, South Carolina		-80.43369	34.06001		Dalzell,_South_Carolina
29042,_Denmark,_South_Carolina,_South_Carolina	PostalZip	12769975	29042, Denmark, South Carolina, South Carolina		-81.15235	33.3115		Denmark,_South_Carolina
29044,_Eastover,_South_Carolina,_South_Carolina	PostalZip	12769976	29044, Eastover, South Carolina, South Carolina		-80.68878	33.91511		Eastover,_South_Carolina
29045,_Elgin,_Kershaw_County,_South_Carolina,_South_Carolina	PostalZip	12769977	29045, Elgin, Kershaw County, South Carolina, South Carolina		-80.81417	34.18344		Elgin,_Kershaw_County,_South_Carolina
29047,_Elloree,_South_Carolina,_South_Carolina	PostalZip	12769979	29047, Elloree, South Carolina, South Carolina		-80.58592	33.53444		Elloree,_South_Carolina
29048,_Eutawville,_South_Carolina,_South_Carolina	PostalZip	12769980	29048, Eutawville, South Carolina, South Carolina		-80.30278	33.37843		Eutawville,_South_Carolina
29052,_Gadsden,_South_Carolina,_South_Carolina	PostalZip	12769982	29052, Gadsden, South Carolina, South Carolina		-80.74065	33.82726		Gadsden,_South_Carolina
29053,_Gaston,_South_Carolina,_South_Carolina	PostalZip	12769983	29053, Gaston, South Carolina, South Carolina		-81.08615	33.82545		Gaston,_South_Carolina
29054,_Gilbert,_South_Carolina,_South_Carolina	PostalZip	12769984	29054, Gilbert, South Carolina, South Carolina		-81.37985	33.94517		Gilbert,_South_Carolina
29055,_Great_Falls,_South_Carolina,_South_Carolina	PostalZip	12769985	29055, Great Falls, South Carolina, South Carolina		-80.91645	34.56715		Great_Falls,_South_Carolina
29056,_Greeleyville,_South_Carolina,_South_Carolina	PostalZip	12769986	29056, Greeleyville, South Carolina, South Carolina		-79.99621	33.60279		Greeleyville,_South_Carolina
29058,_Heath_Springs,_South_Carolina,_South_Carolina	PostalZip	12769987	29058, Heath Springs, South Carolina, South Carolina		-80.73207	34.56513		Heath_Springs,_South_Carolina
29059,_Holly_Hill,_South_Carolina,_South_Carolina	PostalZip	12769988	29059, Holly Hill, South Carolina, South Carolina		-80.42587	33.33079		Holly_Hill,_South_Carolina
29061,_Hopkins,_South_Carolina,_South_Carolina	PostalZip	12769989	29061, Hopkins, South Carolina, South Carolina		-80.85806	33.88952		Hopkins,_South_Carolina
29062,_Horatio,_South_Carolina,_South_Carolina	PostalZip	12769990	29062, Horatio, South Carolina, South Carolina		-80.56609	34.02108		Horatio,_South_Carolina
29063,_Irmo,_South_Carolina,_South_Carolina	PostalZip	12769991	29063, Irmo, South Carolina, South Carolina		-81.20359	34.14142		Irmo,_South_Carolina
29065,_Jenkinsville,_South_Carolina,_South_Carolina	PostalZip	12769992	29065, Jenkinsville, South Carolina, South Carolina		-81.29587	34.29579		Jenkinsville,_South_Carolina
29067,_Kershaw,_South_Carolina,_South_Carolina	PostalZip	12769993	29067, Kershaw, South Carolina, South Carolina		-80.5341	34.55267		Kershaw,_South_Carolina
29069,_Lamar,_South_Carolina,_South_Carolina	PostalZip	12769994	29069, Lamar, South Carolina, South Carolina		-80.09057	34.18391		Lamar,_South_Carolina
29071,_Lexington,_South_Carolina,_South_Carolina	PostalZip	12769996	29071, Lexington, South Carolina, South Carolina		-81.24923	33.98491		Lexington,_South_Carolina
29072,_Lexington,_South_Carolina,_South_Carolina	PostalZip	12769997	29072, Lexington, South Carolina, South Carolina		-81.27401	33.99918		Lexington,_South_Carolina
29073,_Lexington,_South_Carolina,_South_Carolina	PostalZip	12769998	29073, Lexington, South Carolina, South Carolina		-81.2386	33.89347		Lexington,_South_Carolina
29075,_Little_Mountain,_South_Carolina,_South_Carolina	PostalZip	12770000	29075, Little Mountain, South Carolina, South Carolina		-81.37637	34.19741		Little_Mountain,_South_Carolina
29078,_Lugoff,_South_Carolina,_South_Carolina	PostalZip	12770001	29078, Lugoff, South Carolina, South Carolina		-80.70149	34.18521		Lugoff,_South_Carolina
29079,_Lydia,_South_Carolina,_South_Carolina	PostalZip	12770002	29079, Lydia, South Carolina, South Carolina		-80.11248	34.28879		Lydia,_South_Carolina
29080,_Lynchburg,_South_Carolina,_South_Carolina	PostalZip	12770003	29080, Lynchburg, South Carolina, South Carolina		-80.08832	34.01478		Lynchburg,_South_Carolina
29081,_Ehrhardt,_South_Carolina,_South_Carolina	PostalZip	12770004	29081, Ehrhardt, South Carolina, South Carolina		-81.03878	33.09123		Ehrhardt,_South_Carolina
29082,_Lodge,_South_Carolina,_South_Carolina	PostalZip	12770005	29082, Lodge, South Carolina, South Carolina		-80.94021	33.03403		Lodge,_South_Carolina
29101,_McBee,_South_Carolina,_South_Carolina	PostalZip	12770006	29101, McBee, South Carolina, South Carolina		-80.24265	34.48992		McBee,_South_Carolina
29102,_Manning,_South_Carolina,_South_Carolina	PostalZip	12770007	29102, Manning, South Carolina, South Carolina		-80.19083	33.64932		Manning,_South_Carolina
29104,_Mayesville,_South_Carolina,_South_Carolina	PostalZip	12770008	29104, Mayesville, South Carolina, South Carolina		-80.21936	33.99805		Mayesville,_South_Carolina
29105,_Monetta,_South_Carolina,_South_Carolina	PostalZip	12770009	29105, Monetta, South Carolina, South Carolina		-81.59088	33.80548		Monetta,_South_Carolina
29107,_Neeses,_South_Carolina,_South_Carolina	PostalZip	12770011	29107, Neeses, South Carolina, South Carolina		-81.11465	33.52556		Neeses,_South_Carolina
29108,_Newberry,_South_Carolina,_South_Carolina	PostalZip	12770012	29108, Newberry, South Carolina, South Carolina		-81.62418	34.29148		Newberry,_South_Carolina
29112,_North,_South_Carolina,_South_Carolina	PostalZip	12770014	29112, North, South Carolina, South Carolina		-81.08569	33.62829		North,_South_Carolina
29113,_Norway,_South_Carolina,_South_Carolina	PostalZip	12770015	29113, Norway, South Carolina, South Carolina		-81.13162	33.43632		Norway,_South_Carolina
29114,_Olanta,_South_Carolina,_South_Carolina	PostalZip	12770016	29114, Olanta, South Carolina, South Carolina		-79.9401	33.95627		Olanta,_South_Carolina
29115,_Orangeburg,_South_Carolina,_South_Carolina	PostalZip	12770017	29115, Orangeburg, South Carolina, South Carolina		-80.85129	33.47768		Orangeburg,_South_Carolina
29116,_Orangeburg,_South_Carolina,_South_Carolina	PostalZip	12770018	29116, Orangeburg, South Carolina, South Carolina		-80.8673	33.49302		Orangeburg,_South_Carolina
29117,_Orangeburg,_South_Carolina,_South_Carolina	PostalZip	12770019	29117, Orangeburg, South Carolina, South Carolina		-80.84808	33.49844		Orangeburg,_South_Carolina
29118,_Orangeburg,_South_Carolina,_South_Carolina	PostalZip	12770020	29118, Orangeburg, South Carolina, South Carolina		-80.89709	33.57043		Orangeburg,_South_Carolina
29122,_Peak,_South_Carolina,_South_Carolina	PostalZip	12770021	29122, Peak, South Carolina, South Carolina		-81.32705	34.23884		Peak,_South_Carolina
29123,_Pelion,_South_Carolina,_South_Carolina	PostalZip	12770022	29123, Pelion, South Carolina, South Carolina		-81.25946	33.76668		Pelion,_South_Carolina
29125,_Pinewood,_South_Carolina,_South_Carolina	PostalZip	12770024	29125, Pinewood, South Carolina, South Carolina		-80.48152	33.70378		Pinewood,_South_Carolina
29126,_Pomaria,_South_Carolina,_South_Carolina	PostalZip	12770025	29126, Pomaria, South Carolina, South Carolina		-81.41832	34.32155		Pomaria,_South_Carolina
29127,_Prosperity,_South_Carolina,_South_Carolina	PostalZip	12770026	29127, Prosperity, South Carolina, South Carolina		-81.51092	34.16805		Prosperity,_South_Carolina
29128,_Rembert,_South_Carolina,_South_Carolina	PostalZip	12770027	29128, Rembert, South Carolina, South Carolina		-80.53501	34.09335		Rembert,_South_Carolina
29129,_Ridge_Spring,_South_Carolina,_South_Carolina	PostalZip	12770028	29129, Ridge Spring, South Carolina, South Carolina		-81.66688	33.79408		Ridge_Spring,_South_Carolina
29130,_Ridgeway,_South_Carolina,_South_Carolina	PostalZip	12770029	29130, Ridgeway, South Carolina, South Carolina		-80.89318	34.32568		Ridgeway,_South_Carolina
29133,_Rowesville,_South_Carolina,_South_Carolina	PostalZip	12770031	29133, Rowesville, South Carolina, South Carolina		-80.79586	33.37192		Rowesville,_South_Carolina
29135,_St._Matthews,_South_Carolina,_South_Carolina	PostalZip	12770032	29135, St. Matthews, South Carolina, South Carolina		-80.79125	33.69088		St._Matthews,_South_Carolina
29137,_Salley,_South_Carolina,_South_Carolina	PostalZip	12770033	29137, Salley, South Carolina, South Carolina		-81.32095	33.6006		Salley,_South_Carolina
29138,_Saluda,_South_Carolina,_South_Carolina	PostalZip	12770034	29138, Saluda, South Carolina, South Carolina		-81.77307	34.04441		Saluda,_South_Carolina
29142,_Santee,_South_Carolina,_South_Carolina	PostalZip	12770035	29142, Santee, South Carolina, South Carolina		-80.52547	33.46291		Santee,_South_Carolina
29145,_Silverstreet,_South_Carolina,_South_Carolina	PostalZip	12770037	29145, Silverstreet, South Carolina, South Carolina		-81.7733	34.2185		Silverstreet,_South_Carolina
29146,_Springfield,_South_Carolina,_South_Carolina	PostalZip	12770038	29146, Springfield, South Carolina, South Carolina		-81.29518	33.50867		Springfield,_South_Carolina
29148,_Summerton,_South_Carolina,_South_Carolina	PostalZip	12770040	29148, Summerton, South Carolina, South Carolina		-80.35328	33.56341		Summerton,_South_Carolina
29150,_Sumter,_South_Carolina,_South_Carolina	PostalZip	12770041	29150, Sumter, South Carolina, South Carolina		-80.3564	33.87376		Sumter,_South_Carolina
29151,_Sumter,_South_Carolina,_South_Carolina	PostalZip	12770042	29151, Sumter, South Carolina, South Carolina		-80.34117	33.92517		Sumter,_South_Carolina
29152,_Shaw_Air_Force_Base,_South_Carolina	PostalZip	12770043	29152, Shaw Air Force Base, South Carolina		-80.46749	33.97654		Shaw_Air_Force_Base
29153,_Sumter,_South_Carolina,_South_Carolina	PostalZip	12770044	29153, Sumter, South Carolina, South Carolina		-80.30765	33.96428		Sumter,_South_Carolina
29154,_Sumter,_South_Carolina,_South_Carolina	PostalZip	12770045	29154, Sumter, South Carolina, South Carolina		-80.44161	33.88369		Sumter,_South_Carolina
29160,_Swansea,_South_Carolina,_South_Carolina	PostalZip	12770046	29160, Swansea, South Carolina, South Carolina		-81.04848	33.73884		Swansea,_South_Carolina
29161,_Timmonsville,_South_Carolina,_South_Carolina	PostalZip	12770047	29161, Timmonsville, South Carolina, South Carolina		-79.93935	34.10392		Timmonsville,_South_Carolina
29162,_Turbeville,_South_Carolina,_South_Carolina	PostalZip	12770048	29162, Turbeville, South Carolina, South Carolina		-80.00487	33.88718		Turbeville,_South_Carolina
29163,_Vance,_South_Carolina,_South_Carolina	PostalZip	12770049	29163, Vance, South Carolina, South Carolina		-80.43691	33.41919		Vance,_South_Carolina
29164,_Wagener,_South_Carolina,_South_Carolina	PostalZip	12770050	29164, Wagener, South Carolina, South Carolina		-81.42556	33.65707		Wagener,_South_Carolina
29166,_Ward,_South_Carolina,_South_Carolina	PostalZip	12770051	29166, Ward, South Carolina, South Carolina		-81.71604	33.90207		Ward,_South_Carolina
29168,_Wedgefield,_South_Carolina,_South_Carolina	PostalZip	12770052	29168, Wedgefield, South Carolina, South Carolina		-80.55577	33.87959		Wedgefield,_South_Carolina
29169,_West_Columbia,_South_Carolina,_South_Carolina	PostalZip	12770053	29169, West Columbia, South Carolina, South Carolina		-81.09692	33.99669		West_Columbia,_South_Carolina
29170,_West_Columbia,_South_Carolina,_South_Carolina	PostalZip	12770054	29170, West Columbia, South Carolina, South Carolina		-81.14452	33.94004		West_Columbia,_South_Carolina
29171,_West_Columbia,_South_Carolina,_South_Carolina	PostalZip	12770055	29171, West Columbia, South Carolina, South Carolina		-81.07973	33.97858		West_Columbia,_South_Carolina
29172,_West_Columbia,_South_Carolina,_South_Carolina	PostalZip	12770056	29172, West Columbia, South Carolina, South Carolina		-81.07108	33.90858		West_Columbia,_South_Carolina
29175,_Westville,_South_Carolina,_South_Carolina	PostalZip	12770057	29175, Westville, South Carolina, South Carolina		-80.60685	34.4431		Westville,_South_Carolina
29177,_White_Rock,_South_Carolina,_South_Carolina	PostalZip	12770059	29177, White Rock, South Carolina, South Carolina		-81.27579	34.14499		White_Rock,_South_Carolina
29178,_Whitmire,_South_Carolina,_South_Carolina	PostalZip	12770060	29178, Whitmire, South Carolina, South Carolina		-81.57463	34.47869		Whitmire,_South_Carolina
29180,_Winnsboro,_South_Carolina,_South_Carolina	PostalZip	12770061	29180, Winnsboro, South Carolina, South Carolina		-81.09385	34.37361		Winnsboro,_South_Carolina
29201,_Columbia,_South_Carolina,_South_Carolina	PostalZip	12770062	29201, Columbia, South Carolina, South Carolina		-81.02629	33.98053		Columbia,_South_Carolina
29202,_Columbia,_South_Carolina,_South_Carolina	PostalZip	12770063	29202, Columbia, South Carolina, South Carolina		-81.03779	34.0062		Columbia,_South_Carolina
29203,_Columbia,_South_Carolina,_South_Carolina	PostalZip	12770064	29203, Columbia, South Carolina, South Carolina		-81.0411	34.10282		Columbia,_South_Carolina
29204,_Columbia,_South_Carolina,_South_Carolina	PostalZip	12770065	29204, Columbia, South Carolina, South Carolina		-80.9999	34.02897		Columbia,_South_Carolina
29205,_Columbia,_South_Carolina,_South_Carolina	PostalZip	12770066	29205, Columbia, South Carolina, South Carolina		-80.9967	33.99002		Columbia,_South_Carolina
29206,_Columbia,_South_Carolina,_South_Carolina	PostalZip	12770067	29206, Columbia, South Carolina, South Carolina		-80.95359	34.0241		Columbia,_South_Carolina
29207,_Columbia,_South_Carolina,_South_Carolina	PostalZip	12770068	29207, Columbia, South Carolina, South Carolina		-80.81734	34.04287		Columbia,_South_Carolina
29208,_Columbia,_South_Carolina,_South_Carolina	PostalZip	12770069	29208, Columbia, South Carolina, South Carolina		-81.02756	33.99657		Columbia,_South_Carolina
29209,_Columbia,_South_Carolina,_South_Carolina	PostalZip	12770070	29209, Columbia, South Carolina, South Carolina		-80.94286	33.93757		Columbia,_South_Carolina
29210,_Columbia,_South_Carolina,_South_Carolina	PostalZip	12770071	29210, Columbia, South Carolina, South Carolina		-81.10805	34.04643		Columbia,_South_Carolina
29211,_Columbia,_South_Carolina,_South_Carolina	PostalZip	12770072	29211, Columbia, South Carolina, South Carolina		-81.03094	34.00342		Columbia,_South_Carolina
29212,_Columbia,_South_Carolina,_South_Carolina	PostalZip	12770073	29212, Columbia, South Carolina, South Carolina		-81.19376	34.07839		Columbia,_South_Carolina
29214,_Columbia,_South_Carolina,_South_Carolina	PostalZip	12770074	29214, Columbia, South Carolina, South Carolina		-81.04728	33.99712		Columbia,_South_Carolina
29215,_Columbia,_South_Carolina,_South_Carolina	PostalZip	12770075	29215, Columbia, South Carolina, South Carolina		-81.04997	34.00524		Columbia,_South_Carolina
29216,_Columbia,_South_Carolina,_South_Carolina	PostalZip	12770076	29216, Columbia, South Carolina, South Carolina		-81.00484	34.043		Columbia,_South_Carolina
29217,_Columbia,_South_Carolina,_South_Carolina	PostalZip	12770077	29217, Columbia, South Carolina, South Carolina		-81.03668	34.00843		Columbia,_South_Carolina
29218,_Columbia,_South_Carolina,_South_Carolina	PostalZip	12770078	29218, Columbia, South Carolina, South Carolina		-81.03493	34.00438		Columbia,_South_Carolina
29219,_Columbia,_South_Carolina,_South_Carolina	PostalZip	12770079	29219, Columbia, South Carolina, South Carolina		-80.91378	34.06722		Columbia,_South_Carolina
29220,_Columbia,_South_Carolina,_South_Carolina	PostalZip	12770080	29220, Columbia, South Carolina, South Carolina		-81.03407	34.00717		Columbia,_South_Carolina
29221,_Columbia,_South_Carolina,_South_Carolina	PostalZip	12770081	29221, Columbia, South Carolina, South Carolina		-81.09846	34.04018		Columbia,_South_Carolina
29222,_Columbia,_South_Carolina,_South_Carolina	PostalZip	12770082	29222, Columbia, South Carolina, South Carolina		-81.03	34.0		Columbia,_South_Carolina
29223,_Columbia,_South_Carolina,_South_Carolina	PostalZip	12770083	29223, Columbia, South Carolina, South Carolina		-80.92164	34.08897		Columbia,_South_Carolina
29224,_Columbia,_South_Carolina,_South_Carolina	PostalZip	12770084	29224, Columbia, South Carolina, South Carolina		-80.93308	34.0871		Columbia,_South_Carolina
29225,_Columbia,_South_Carolina,_South_Carolina	PostalZip	12770085	29225, Columbia, South Carolina, South Carolina		-81.02499	33.99621		Columbia,_South_Carolina
29226,_Columbia,_South_Carolina,_South_Carolina	PostalZip	12770086	29226, Columbia, South Carolina, South Carolina		-81.10663	34.03351		Columbia,_South_Carolina
29227,_Columbia,_South_Carolina,_South_Carolina	PostalZip	12770087	29227, Columbia, South Carolina, South Carolina		-81.10663	34.03351		Columbia,_South_Carolina
29228,_Columbia,_South_Carolina,_South_Carolina	PostalZip	12770088	29228, Columbia, South Carolina, South Carolina		-81.00484	34.043		Columbia,_South_Carolina
29229,_Columbia,_South_Carolina,_South_Carolina	PostalZip	12770089	29229, Columbia, South Carolina, South Carolina		-80.88997	34.14152		Columbia,_South_Carolina
29230,_Columbia,_South_Carolina,_South_Carolina	PostalZip	12770090	29230, Columbia, South Carolina, South Carolina		-81.04329	34.03955		Columbia,_South_Carolina
29240,_Columbia,_South_Carolina,_South_Carolina	PostalZip	12770091	29240, Columbia, South Carolina, South Carolina		-81.00775	34.03003		Columbia,_South_Carolina
29250,_Columbia,_South_Carolina,_South_Carolina	PostalZip	12770092	29250, Columbia, South Carolina, South Carolina		-81.01638	34.00033		Columbia,_South_Carolina
29260,_Columbia,_South_Carolina,_South_Carolina	PostalZip	12770093	29260, Columbia, South Carolina, South Carolina		-80.94971	34.0223		Columbia,_South_Carolina
29290,_Columbia,_South_Carolina,_South_Carolina	PostalZip	12770094	29290, Columbia, South Carolina, South Carolina		-80.94493	33.96732		Columbia,_South_Carolina
29292,_Columbia,_South_Carolina,_South_Carolina	PostalZip	12770095	29292, Columbia, South Carolina, South Carolina		-81.00484	34.043		Columbia,_South_Carolina
29301,_Spartanburg,_South_Carolina,_South_Carolina	PostalZip	12770096	29301, Spartanburg, South Carolina, South Carolina		-82.01286	34.93528		Spartanburg,_South_Carolina
29302,_Spartanburg,_South_Carolina,_South_Carolina	PostalZip	12770097	29302, Spartanburg, South Carolina, South Carolina		-81.84325	34.89529		Spartanburg,_South_Carolina
29303,_Spartanburg,_South_Carolina,_South_Carolina	PostalZip	12770098	29303, Spartanburg, South Carolina, South Carolina		-81.9687	34.99437		Spartanburg,_South_Carolina
29304,_Spartanburg,_South_Carolina,_South_Carolina	PostalZip	12770099	29304, Spartanburg, South Carolina, South Carolina		-81.93027	34.94636		Spartanburg,_South_Carolina
29305,_Spartanburg,_South_Carolina,_South_Carolina	PostalZip	12770100	29305, Spartanburg, South Carolina, South Carolina		-81.93027	34.94636		Spartanburg,_South_Carolina
29306,_Spartanburg,_South_Carolina,_South_Carolina	PostalZip	12770101	29306, Spartanburg, South Carolina, South Carolina		-81.92288	34.89581		Spartanburg,_South_Carolina
29307,_Spartanburg,_South_Carolina,_South_Carolina	PostalZip	12770102	29307, Spartanburg, South Carolina, South Carolina		-81.83371	34.98351		Spartanburg,_South_Carolina
29316,_Boiling_Springs,_South_Carolina,_South_Carolina	PostalZip	12770103	29316, Boiling Springs, South Carolina, South Carolina		-81.97616	35.04228		Boiling_Springs,_South_Carolina
29319,_Spartanburg,_South_Carolina,_South_Carolina	PostalZip	12770105	29319, Spartanburg, South Carolina, South Carolina		-81.92919	34.95002		Spartanburg,_South_Carolina
29320,_Arcadia,_South_Carolina,_South_Carolina	PostalZip	12770106	29320, Arcadia, South Carolina, South Carolina		-81.99439	34.95692		Arcadia,_South_Carolina
29321,_Buffalo,_South_Carolina,_South_Carolina	PostalZip	12770107	29321, Buffalo, South Carolina, South Carolina		-81.74059	34.71944		Buffalo,_South_Carolina
29322,_Campobello,_South_Carolina,_South_Carolina	PostalZip	12770108	29322, Campobello, South Carolina, South Carolina		-82.13188	35.1225		Campobello,_South_Carolina
29323,_Chesnee,_South_Carolina,_South_Carolina	PostalZip	12770109	29323, Chesnee, South Carolina, South Carolina		-81.90942	35.12921		Chesnee,_South_Carolina
29324,_Clifton,_South_Carolina,_South_Carolina	PostalZip	12770110	29324, Clifton, South Carolina, South Carolina		-81.81799	34.9794		Clifton,_South_Carolina
29325,_Clinton,_South_Carolina,_South_Carolina	PostalZip	12770111	29325, Clinton, South Carolina, South Carolina		-81.83442	34.47903		Clinton,_South_Carolina
29329,_Converse,_South_Carolina,_South_Carolina	PostalZip	12770112	29329, Converse, South Carolina, South Carolina		-81.83489	34.99189		Converse,_South_Carolina
29330,_Cowpens,_South_Carolina,_South_Carolina	PostalZip	12770113	29330, Cowpens, South Carolina, South Carolina		-81.8033	35.05317		Cowpens,_South_Carolina
29331,_Cross_Anchor,_South_Carolina,_South_Carolina	PostalZip	12770114	29331, Cross Anchor, South Carolina, South Carolina		-81.8412	34.6455		Cross_Anchor,_South_Carolina
29332,_Cross_Hill,_South_Carolina,_South_Carolina	PostalZip	12770115	29332, Cross Hill, South Carolina, South Carolina		-81.97479	34.28131		Cross_Hill,_South_Carolina
29334,_Duncan,_South_Carolina,_South_Carolina	PostalZip	12770117	29334, Duncan, South Carolina, South Carolina		-82.12425	34.90549		Duncan,_South_Carolina
29335,_Enoree,_South_Carolina,_South_Carolina	PostalZip	12770118	29335, Enoree, South Carolina, South Carolina		-81.90037	34.65597		Enoree,_South_Carolina
29336,_Fairforest,_South_Carolina,_South_Carolina	PostalZip	12770119	29336, Fairforest, South Carolina, South Carolina		-82.00971	34.95643		Fairforest,_South_Carolina
29338,_Fingerville,_South_Carolina,_South_Carolina	PostalZip	12770120	29338, Fingerville, South Carolina, South Carolina		-82.00659	35.1338		Fingerville,_South_Carolina
29340,_Gaffney,_South_Carolina,_South_Carolina	PostalZip	12770121	29340, Gaffney, South Carolina, South Carolina		-81.59303	34.98111		Gaffney,_South_Carolina
29341,_Gaffney,_South_Carolina,_South_Carolina	PostalZip	12770122	29341, Gaffney, South Carolina, South Carolina		-81.71226	35.11873		Gaffney,_South_Carolina
29342,_Gaffney,_South_Carolina,_South_Carolina	PostalZip	12770123	29342, Gaffney, South Carolina, South Carolina		-81.65508	35.06732		Gaffney,_South_Carolina
29346,_Glendale,_South_Carolina,_South_Carolina	PostalZip	12770124	29346, Glendale, South Carolina, South Carolina		-81.83479	34.94499		Glendale,_South_Carolina
29348,_Gramling,_South_Carolina,_South_Carolina	PostalZip	12770125	29348, Gramling, South Carolina, South Carolina		-82.1327	35.0766		Gramling,_South_Carolina
29349,_Inman,_South_Carolina,_South_Carolina	PostalZip	12770126	29349, Inman, South Carolina, South Carolina		-82.07027	35.06987		Inman,_South_Carolina
29351,_Joanna,_South_Carolina,_South_Carolina	PostalZip	12770127	29351, Joanna, South Carolina, South Carolina		-81.80924	34.41988		Joanna,_South_Carolina
29353,_Jonesville,_South_Carolina,_South_Carolina	PostalZip	12770128	29353, Jonesville, South Carolina, South Carolina		-81.65704	34.83088		Jonesville,_South_Carolina
29355,_Kinards,_South_Carolina,_South_Carolina	PostalZip	12770129	29355, Kinards, South Carolina, South Carolina		-81.75686	34.37068		Kinards,_South_Carolina
29356,_Landrum,_South_Carolina,_South_Carolina	PostalZip	12770130	29356, Landrum, South Carolina, South Carolina		-82.26289	35.14513		Landrum,_South_Carolina
29360,_Laurens,_South_Carolina,_South_Carolina	PostalZip	12770131	29360, Laurens, South Carolina, South Carolina		-82.04661	34.49611		Laurens,_South_Carolina
29364,_Lockhart,_South_Carolina,_South_Carolina	PostalZip	12770132	29364, Lockhart, South Carolina, South Carolina		-81.45971	34.78849		Lockhart,_South_Carolina
29365,_Lyman,_South_Carolina,_South_Carolina	PostalZip	12770133	29365, Lyman, South Carolina, South Carolina		-82.16718	34.97942		Lyman,_South_Carolina
29368,_Mayo,_South_Carolina,_South_Carolina	PostalZip	12770134	29368, Mayo, South Carolina, South Carolina		-81.85963	35.08004		Mayo,_South_Carolina
29369,_Moore,_South_Carolina,_South_Carolina	PostalZip	12770135	29369, Moore, South Carolina, South Carolina		-82.0228	34.86336		Moore,_South_Carolina
29370,_Mountville,_South_Carolina,_South_Carolina	PostalZip	12770136	29370, Mountville, South Carolina, South Carolina		-81.96616	34.3703		Mountville,_South_Carolina
29372,_Pacolet,_South_Carolina,_South_Carolina	PostalZip	12770137	29372, Pacolet, South Carolina, South Carolina		-81.70871	34.90576		Pacolet,_South_Carolina
29374,_Pauline,_South_Carolina,_South_Carolina	PostalZip	12770139	29374, Pauline, South Carolina, South Carolina		-81.84765	34.78746		Pauline,_South_Carolina
29375,_Reidville,_South_Carolina,_South_Carolina	PostalZip	12770140	29375, Reidville, South Carolina, South Carolina		-82.11293	34.86223		Reidville,_South_Carolina
29376,_Roebuck,_South_Carolina,_South_Carolina	PostalZip	12770141	29376, Roebuck, South Carolina, South Carolina		-81.95086	34.8173		Roebuck,_South_Carolina
29377,_Startex,_South_Carolina,_South_Carolina	PostalZip	12770142	29377, Startex, South Carolina, South Carolina		-82.09849	34.92691		Startex,_South_Carolina
29379,_Union,_South_Carolina,_South_Carolina	PostalZip	12770144	29379, Union, South Carolina, South Carolina		-81.60981	34.67845		Union,_South_Carolina
29384,_Waterloo,_South_Carolina,_South_Carolina	PostalZip	12770145	29384, Waterloo, South Carolina, South Carolina		-82.0883	34.34134		Waterloo,_South_Carolina
29385,_Wellford,_South_Carolina,_South_Carolina	PostalZip	12770146	29385, Wellford, South Carolina, South Carolina		-82.10112	34.97209		Wellford,_South_Carolina
29388,_Woodruff,_South_Carolina,_South_Carolina	PostalZip	12770148	29388, Woodruff, South Carolina, South Carolina		-82.04041	34.75862		Woodruff,_South_Carolina
29401,_Charleston,_South_Carolina,_South_Carolina	PostalZip	12770151	29401, Charleston, South Carolina, South Carolina		-79.93532	32.7794		Charleston,_South_Carolina
29402,_Charleston,_South_Carolina,_South_Carolina	PostalZip	12770152	29402, Charleston, South Carolina, South Carolina		-79.93145	32.77638		Charleston,_South_Carolina
29403,_Charleston,_South_Carolina,_South_Carolina	PostalZip	12770153	29403, Charleston, South Carolina, South Carolina		-79.94453	32.8016		Charleston,_South_Carolina
29405,_North_Charleston,_South_Carolina,_South_Carolina	PostalZip	12770155	29405, North Charleston, South Carolina, South Carolina		-79.98199	32.85387		North_Charleston,_South_Carolina
29406,_Charleston,_South_Carolina,_South_Carolina	PostalZip	12770156	29406, Charleston, South Carolina, South Carolina		-80.03442	32.93548		Charleston,_South_Carolina
29407,_Charleston,_South_Carolina,_South_Carolina	PostalZip	12770157	29407, Charleston, South Carolina, South Carolina		-80.00015	32.7979		Charleston,_South_Carolina
29409,_Charleston,_South_Carolina,_South_Carolina	PostalZip	12770158	29409, Charleston, South Carolina, South Carolina		-79.96391	32.796		Charleston,_South_Carolina
29410,_Hanahan,_South_Carolina,_South_Carolina	PostalZip	12770159	29410, Hanahan, South Carolina, South Carolina		-80.00312	32.93034		Hanahan,_South_Carolina
29412,_Charleston,_South_Carolina,_South_Carolina	PostalZip	12770160	29412, Charleston, South Carolina, South Carolina		-79.9601	32.71558		Charleston,_South_Carolina
29413,_Charleston,_South_Carolina,_South_Carolina	PostalZip	12770161	29413, Charleston, South Carolina, South Carolina		-79.93138	32.79242		Charleston,_South_Carolina
29414,_Charleston,_South_Carolina,_South_Carolina	PostalZip	12770162	29414, Charleston, South Carolina, South Carolina		-80.09277	32.84056		Charleston,_South_Carolina
29415,_North_Charleston,_South_Carolina,_South_Carolina	PostalZip	12770163	29415, North Charleston, South Carolina, South Carolina		-79.98503	32.85699		North_Charleston,_South_Carolina
29416,_Charleston,_South_Carolina,_South_Carolina	PostalZip	12770164	29416, Charleston, South Carolina, South Carolina		-80.02455	32.80835		Charleston,_South_Carolina
29417,_Charleston,_South_Carolina,_South_Carolina	PostalZip	12770165	29417, Charleston, South Carolina, South Carolina		-79.99045	32.78965		Charleston,_South_Carolina
29418,_North_Charleston,_South_Carolina,_South_Carolina	PostalZip	12770166	29418, North Charleston, South Carolina, South Carolina		-80.02713	32.90847		North_Charleston,_South_Carolina
29419,_North_Charleston,_South_Carolina,_South_Carolina	PostalZip	12770167	29419, North Charleston, South Carolina, South Carolina		-80.02611	32.9146		North_Charleston,_South_Carolina
29420,_North_Charleston,_South_Carolina,_South_Carolina	PostalZip	12770168	29420, North Charleston, South Carolina, South Carolina		-80.10008	32.93032		North_Charleston,_South_Carolina
29422,_Charleston,_South_Carolina,_South_Carolina	PostalZip	12770169	29422, Charleston, South Carolina, South Carolina		-79.9724	32.75063		Charleston,_South_Carolina
29423,_Charleston,_South_Carolina,_South_Carolina	PostalZip	12770170	29423, Charleston, South Carolina, South Carolina		-80.07441	32.90416		Charleston,_South_Carolina
29424,_Charleston,_South_Carolina,_South_Carolina	PostalZip	12770171	29424, Charleston, South Carolina, South Carolina		-79.93748	32.78367		Charleston,_South_Carolina
29425,_Charleston,_South_Carolina,_South_Carolina	PostalZip	12770172	29425, Charleston, South Carolina, South Carolina		-79.94814	32.78428		Charleston,_South_Carolina
29426,_Adams_Run,_South_Carolina,_South_Carolina	PostalZip	12770173	29426, Adams Run, South Carolina, South Carolina		-80.37325	32.7865		Adams_Run,_South_Carolina
29429,_Awendaw,_South_Carolina,_South_Carolina	PostalZip	12770174	29429, Awendaw, South Carolina, South Carolina		-79.66338	32.98467		Awendaw,_South_Carolina
29431,_Bonneau,_South_Carolina,_South_Carolina	PostalZip	12770176	29431, Bonneau, South Carolina, South Carolina		-79.86532	33.28206		Bonneau,_South_Carolina
29432,_Branchville,_South_Carolina,_South_Carolina	PostalZip	12770177	29432, Branchville, South Carolina, South Carolina		-80.81522	33.23708		Branchville,_South_Carolina
29435,_Cottageville,_South_Carolina,_South_Carolina	PostalZip	12770180	29435, Cottageville, South Carolina, South Carolina		-80.46406	32.95044		Cottageville,_South_Carolina
29436,_Cross,_South_Carolina,_South_Carolina	PostalZip	12770181	29436, Cross, South Carolina, South Carolina		-80.1983	33.31245		Cross,_South_Carolina
29439,_Folly_Beach,_South_Carolina,_South_Carolina	PostalZip	12770184	29439, Folly Beach, South Carolina, South Carolina		-79.91103	32.68912		Folly_Beach,_South_Carolina
29440,_Georgetown,_South_Carolina,_South_Carolina	PostalZip	12770185	29440, Georgetown, South Carolina, South Carolina		-79.33373	33.40663		Georgetown,_South_Carolina
29442,_Georgetown,_South_Carolina,_South_Carolina	PostalZip	12770186	29442, Georgetown, South Carolina, South Carolina		-79.28763	33.38795		Georgetown,_South_Carolina
29445,_Goose_Creek,_South_Carolina,_South_Carolina	PostalZip	12770187	29445, Goose Creek, South Carolina, South Carolina		-79.99471	33.00329		Goose_Creek,_South_Carolina
29448,_Harleyville,_South_Carolina,_South_Carolina	PostalZip	12770190	29448, Harleyville, South Carolina, South Carolina		-80.45162	33.24613		Harleyville,_South_Carolina
29449,_Hollywood,_South_Carolina,_South_Carolina	PostalZip	12770191	29449, Hollywood, South Carolina, South Carolina		-80.2915	32.69944		Hollywood,_South_Carolina
29451,_Isle_of_Palms,_South_Carolina,_South_Carolina	PostalZip	12770193	29451, Isle of Palms, South Carolina, South Carolina		-79.75537	32.81547		Isle_of_Palms,_South_Carolina
29452,_Jacksonboro,_South_Carolina,_South_Carolina	PostalZip	12770194	29452, Jacksonboro, South Carolina, South Carolina		-80.46265	32.72275		Jacksonboro,_South_Carolina
29453,_Jamestown,_South_Carolina,_South_Carolina	PostalZip	12770195	29453, Jamestown, South Carolina, South Carolina		-79.62556	33.22539		Jamestown,_South_Carolina
29455,_Johns_Island,_South_Carolina,_South_Carolina	PostalZip	12770196	29455, Johns Island, South Carolina, South Carolina		-80.0912	32.69974		Johns_Island,_South_Carolina
29456,_Ladson,_South_Carolina,_South_Carolina	PostalZip	12770197	29456, Ladson, South Carolina, South Carolina		-80.11014	32.98385		Ladson,_South_Carolina
29457,_Johns_Island,_South_Carolina,_South_Carolina	PostalZip	12770198	29457, Johns Island, South Carolina, South Carolina		-80.07	32.72		Johns_Island,_South_Carolina
29458,_McClellanville,_South_Carolina,_South_Carolina	PostalZip	12770199	29458, McClellanville, South Carolina, South Carolina		-79.45244	33.10433		McClellanville,_South_Carolina
29461,_Moncks_Corner,_South_Carolina,_South_Carolina	PostalZip	12770200	29461, Moncks Corner, South Carolina, South Carolina		-80.01312	33.15333		Moncks_Corner,_South_Carolina
29464,_Mount_Pleasant,_South_Carolina,_South_Carolina	PostalZip	12770201	29464, Mount Pleasant, South Carolina, South Carolina		-79.85487	32.82031		Mount_Pleasant,_South_Carolina
29465,_Mount_Pleasant,_South_Carolina,_South_Carolina	PostalZip	12770202	29465, Mount Pleasant, South Carolina, South Carolina		-79.86346	32.81228		Mount_Pleasant,_South_Carolina
29466,_Mount_Pleasant,_South_Carolina,_South_Carolina	PostalZip	12770203	29466, Mount Pleasant, South Carolina, South Carolina		-79.79306	32.87937		Mount_Pleasant,_South_Carolina
29469,_Pinopolis,_South_Carolina,_South_Carolina	PostalZip	12770205	29469, Pinopolis, South Carolina, South Carolina		-80.1137	33.24357		Pinopolis,_South_Carolina
29470,_Ravenel,_South_Carolina,_South_Carolina	PostalZip	12770206	29470, Ravenel, South Carolina, South Carolina		-80.24813	32.83651		Ravenel,_South_Carolina
29471,_Reevesville,_South_Carolina,_South_Carolina	PostalZip	12770207	29471, Reevesville, South Carolina, South Carolina		-80.66609	33.18975		Reevesville,_South_Carolina
29472,_Ridgeville,_South_Carolina,_South_Carolina	PostalZip	12770208	29472, Ridgeville, South Carolina, South Carolina		-80.31793	33.06447		Ridgeville,_South_Carolina
29474,_Round_O,_South_Carolina,_South_Carolina	PostalZip	12770209	29474, Round O, South Carolina, South Carolina		-80.52525	32.90778		Round_O,_South_Carolina
29476,_Russellville,_South_Carolina,_South_Carolina	PostalZip	12770211	29476, Russellville, South Carolina, South Carolina		-79.9719	33.39689		Russellville,_South_Carolina
29477,_St._George,_South_Carolina,_South_Carolina	PostalZip	12770212	29477, St. George, South Carolina, South Carolina		-80.57241	33.16403		St._George,_South_Carolina
29479,_St._Stephen,_South_Carolina,_South_Carolina	PostalZip	12770213	29479, St. Stephen, South Carolina, South Carolina		-79.90178	33.39064		St._Stephen,_South_Carolina
29481,_Smoaks,_South_Carolina,_South_Carolina	PostalZip	12770214	29481, Smoaks, South Carolina, South Carolina		-80.79901	33.1098		Smoaks,_South_Carolina
29482,_Sullivan%27s_Island,_South_Carolina,_South_Carolina	PostalZip	12770215	29482, Sullivan%27s Island, South Carolina, South Carolina		-79.83565	32.76628		Sullivan%27s_Island,_South_Carolina
29483,_Summerville,_South_Carolina,_South_Carolina	PostalZip	12770216	29483, Summerville, South Carolina, South Carolina		-80.23261	33.03077		Summerville,_South_Carolina
29484,_Summerville,_South_Carolina,_South_Carolina	PostalZip	12770217	29484, Summerville, South Carolina, South Carolina		-80.17002	33.02139		Summerville,_South_Carolina
29485,_Summerville,_South_Carolina,_South_Carolina	PostalZip	12770218	29485, Summerville, South Carolina, South Carolina		-80.19007	32.94951		Summerville,_South_Carolina
29487,_Wadmalaw_Island,_South_Carolina	PostalZip	12770219	29487, Wadmalaw Island, South Carolina		-80.18058	32.65979		Wadmalaw_Island
29488,_Walterboro,_South_Carolina,_South_Carolina	PostalZip	12770220	29488, Walterboro, South Carolina, South Carolina		-80.67376	32.90608		Walterboro,_South_Carolina
29492,_Charleston,_South_Carolina,_South_Carolina	PostalZip	12770221	29492, Charleston, South Carolina, South Carolina		-79.87549	32.9209		Charleston,_South_Carolina
29493,_Williams,_South_Carolina,_South_Carolina	PostalZip	12770222	29493, Williams, South Carolina, South Carolina		-80.84277	33.03378		Williams,_South_Carolina
29501,_Florence,_South_Carolina,_South_Carolina	PostalZip	12770223	29501, Florence, South Carolina, South Carolina		-79.82457	34.20687		Florence,_South_Carolina
29502,_Florence,_South_Carolina,_South_Carolina	PostalZip	12770224	29502, Florence, South Carolina, South Carolina		-79.80282	34.19554		Florence,_South_Carolina
29503,_Florence,_South_Carolina,_South_Carolina	PostalZip	12770225	29503, Florence, South Carolina, South Carolina		-79.77282	34.1971		Florence,_South_Carolina
29504,_Florence,_South_Carolina,_South_Carolina	PostalZip	12770226	29504, Florence, South Carolina, South Carolina		-79.77083	34.16692		Florence,_South_Carolina
29505,_Florence,_South_Carolina,_South_Carolina	PostalZip	12770227	29505, Florence, South Carolina, South Carolina		-79.68997	34.12492		Florence,_South_Carolina
29506,_Florence,_South_Carolina,_South_Carolina	PostalZip	12770228	29506, Florence, South Carolina, South Carolina		-79.64569	34.2129		Florence,_South_Carolina
29510,_Andrews,_South_Carolina,_South_Carolina	PostalZip	12770229	29510, Andrews, South Carolina, South Carolina		-79.6173	33.44404		Andrews,_South_Carolina
29511,_Aynor,_South_Carolina,_South_Carolina	PostalZip	12770230	29511, Aynor, South Carolina, South Carolina		-79.11173	33.97551		Aynor,_South_Carolina
29512,_Bennettsville,_South_Carolina,_South_Carolina	PostalZip	12770231	29512, Bennettsville, South Carolina, South Carolina		-79.7133	34.62587		Bennettsville,_South_Carolina
29516,_Blenheim,_South_Carolina,_South_Carolina	PostalZip	12770232	29516, Blenheim, South Carolina, South Carolina		-79.62428	34.44175		Blenheim,_South_Carolina
29518,_Cades,_South_Carolina,_South_Carolina	PostalZip	12770233	29518, Cades, South Carolina, South Carolina		-79.83943	33.78808		Cades,_South_Carolina
29519,_Centenary,_South_Carolina,_South_Carolina	PostalZip	12770234	29519, Centenary, South Carolina, South Carolina		-79.4943	34.05572		Centenary,_South_Carolina
29520,_Cheraw,_South_Carolina,_South_Carolina	PostalZip	12770235	29520, Cheraw, South Carolina, South Carolina		-79.9261	34.67189		Cheraw,_South_Carolina
29525,_Clio,_South_Carolina,_South_Carolina	PostalZip	12770236	29525, Clio, South Carolina, South Carolina		-79.53462	34.56865		Clio,_South_Carolina
29526,_Conway,_South_Carolina,_South_Carolina	PostalZip	12770237	29526, Conway, South Carolina, South Carolina		-78.97954	33.86962		Conway,_South_Carolina
29527,_Conway,_South_Carolina,_South_Carolina	PostalZip	12770238	29527, Conway, South Carolina, South Carolina		-79.14849	33.78039		Conway,_South_Carolina
29528,_Conway,_South_Carolina,_South_Carolina	PostalZip	12770239	29528, Conway, South Carolina, South Carolina		-79.05363	33.86568		Conway,_South_Carolina
29530,_Coward,_South_Carolina,_South_Carolina	PostalZip	12770240	29530, Coward, South Carolina, South Carolina		-79.74244	33.99256		Coward,_South_Carolina
29532,_Darlington,_South_Carolina,_South_Carolina	PostalZip	12770241	29532, Darlington, South Carolina, South Carolina		-79.85568	34.28413		Darlington,_South_Carolina
29536,_Dillon,_South_Carolina,_South_Carolina	PostalZip	12770242	29536, Dillon, South Carolina, South Carolina		-79.37589	34.42171		Dillon,_South_Carolina
29540,_Darlington,_South_Carolina,_South_Carolina	PostalZip	12770243	29540, Darlington, South Carolina, South Carolina		-79.84915	34.38727		Darlington,_South_Carolina
29541,_Effingham,_South_Carolina,_South_Carolina	PostalZip	12770244	29541, Effingham, South Carolina, South Carolina		-79.74495	34.06743		Effingham,_South_Carolina
29544,_Galivants_Ferry,_South_Carolina,_South_Carolina	PostalZip	12770246	29544, Galivants Ferry, South Carolina, South Carolina		-79.21432	34.00263		Galivants_Ferry,_South_Carolina
29545,_Green_Sea,_South_Carolina,_South_Carolina	PostalZip	12770247	29545, Green Sea, South Carolina, South Carolina		-78.96633	34.16089		Green_Sea,_South_Carolina
29547,_Hamer,_South_Carolina,_South_Carolina	PostalZip	12770249	29547, Hamer, South Carolina, South Carolina		-79.33592	34.48996		Hamer,_South_Carolina
29550,_Hartsville,_South_Carolina,_South_Carolina	PostalZip	12770250	29550, Hartsville, South Carolina, South Carolina		-80.07774	34.39309		Hartsville,_South_Carolina
29551,_Hartsville,_South_Carolina,_South_Carolina	PostalZip	12770251	29551, Hartsville, South Carolina, South Carolina		-80.06527	34.36519		Hartsville,_South_Carolina
29554,_Hemingway,_South_Carolina,_South_Carolina	PostalZip	12770252	29554, Hemingway, South Carolina, South Carolina		-79.40519	33.71137		Hemingway,_South_Carolina
29555,_Johnsonville,_South_Carolina,_South_Carolina	PostalZip	12770253	29555, Johnsonville, South Carolina, South Carolina		-79.45265	33.83621		Johnsonville,_South_Carolina
29556,_Kingstree,_South_Carolina,_South_Carolina	PostalZip	12770254	29556, Kingstree, South Carolina, South Carolina		-79.77329	33.67328		Kingstree,_South_Carolina
29560,_Lake_City,_South_Carolina,_South_Carolina	PostalZip	12770255	29560, Lake City, South Carolina, South Carolina		-79.74017	33.84088		Lake_City,_South_Carolina
29563,_Lake_View,_South_Carolina,_South_Carolina	PostalZip	12770256	29563, Lake View, South Carolina, South Carolina		-79.20674	34.3534		Lake_View,_South_Carolina
29564,_Lane,_South_Carolina,_South_Carolina	PostalZip	12770257	29564, Lane, South Carolina, South Carolina		-79.85114	33.46979		Lane,_South_Carolina
29565,_Latta,_South_Carolina,_South_Carolina	PostalZip	12770258	29565, Latta, South Carolina, South Carolina		-79.50494	34.35139		Latta,_South_Carolina
29566,_Little_River,_South_Carolina,_South_Carolina	PostalZip	12770259	29566, Little River, South Carolina, South Carolina		-78.65927	33.88114		Little_River,_South_Carolina
29567,_Little_Rock,_South_Carolina,_South_Carolina	PostalZip	12770260	29567, Little Rock, South Carolina, South Carolina		-79.42895	34.55573		Little_Rock,_South_Carolina
29568,_Longs,_South_Carolina,_South_Carolina	PostalZip	12770261	29568, Longs, South Carolina, South Carolina		-78.76072	33.90559		Longs,_South_Carolina
29569,_Loris,_South_Carolina,_South_Carolina	PostalZip	12770262	29569, Loris, South Carolina, South Carolina		-78.90647	34.03401		Loris,_South_Carolina
29570,_McColl,_South_Carolina,_South_Carolina	PostalZip	12770263	29570, McColl, South Carolina, South Carolina		-79.56581	34.67274		McColl,_South_Carolina
29571,_Marion,_South_Carolina,_South_Carolina	PostalZip	12770264	29571, Marion, South Carolina, South Carolina		-79.4096	34.14391		Marion,_South_Carolina
29572,_Myrtle_Beach,_South_Carolina,_South_Carolina	PostalZip	12770265	29572, Myrtle Beach, South Carolina, South Carolina		-78.79196	33.76803		Myrtle_Beach,_South_Carolina
29574,_Mullins,_South_Carolina,_South_Carolina	PostalZip	12770267	29574, Mullins, South Carolina, South Carolina		-79.26765	34.17212		Mullins,_South_Carolina
29575,_Myrtle_Beach,_South_Carolina,_South_Carolina	PostalZip	12770268	29575, Myrtle Beach, South Carolina, South Carolina		-78.97403	33.62958		Myrtle_Beach,_South_Carolina
29576,_Murrells_Inlet,_South_Carolina,_South_Carolina	PostalZip	12770269	29576, Murrells Inlet, South Carolina, South Carolina		-79.08324	33.56174		Murrells_Inlet,_South_Carolina
29577,_Myrtle_Beach,_South_Carolina,_South_Carolina	PostalZip	12770270	29577, Myrtle Beach, South Carolina, South Carolina		-78.90302	33.69802		Myrtle_Beach,_South_Carolina
29578,_Myrtle_Beach,_South_Carolina,_South_Carolina	PostalZip	12770271	29578, Myrtle Beach, South Carolina, South Carolina		-78.88669	33.68992		Myrtle_Beach,_South_Carolina
29579,_Myrtle_Beach,_South_Carolina,_South_Carolina	PostalZip	12770272	29579, Myrtle Beach, South Carolina, South Carolina		-78.90396	33.76427		Myrtle_Beach,_South_Carolina
29580,_Nesmith,_South_Carolina,_South_Carolina	PostalZip	12770273	29580, Nesmith, South Carolina, South Carolina		-79.56175	33.64147		Nesmith,_South_Carolina
29581,_Nichols,_South_Carolina,_South_Carolina	PostalZip	12770274	29581, Nichols, South Carolina, South Carolina		-79.1107	34.20158		Nichols,_South_Carolina
29582,_North_Myrtle_Beach,_South_Carolina,_South_Carolina	PostalZip	12770275	29582, North Myrtle Beach, South Carolina, South Carolina		-78.66463	33.83263		North_Myrtle_Beach,_South_Carolina
29583,_Pamplico,_South_Carolina,_South_Carolina	PostalZip	12770276	29583, Pamplico, South Carolina, South Carolina		-79.572	33.97351		Pamplico,_South_Carolina
29584,_Patrick,_South_Carolina,_South_Carolina	PostalZip	12770277	29584, Patrick, South Carolina, South Carolina		-80.05297	34.57603		Patrick,_South_Carolina
29585,_Pawleys_Island,_South_Carolina,_South_Carolina	PostalZip	12770278	29585, Pawleys Island, South Carolina, South Carolina		-79.14888	33.44186		Pawleys_Island,_South_Carolina
29587,_Myrtle_Beach,_South_Carolina,_South_Carolina	PostalZip	12770279	29587, Myrtle Beach, South Carolina, South Carolina		-78.88744	33.68898		Myrtle_Beach,_South_Carolina
29590,_Salters,_South_Carolina,_South_Carolina	PostalZip	12770281	29590, Salters, South Carolina, South Carolina		-79.85019	33.55967		Salters,_South_Carolina
29591,_Scranton,_South_Carolina,_South_Carolina	PostalZip	12770282	29591, Scranton, South Carolina, South Carolina		-79.76579	33.93977		Scranton,_South_Carolina
29592,_Sellers,_South_Carolina,_South_Carolina	PostalZip	12770283	29592, Sellers, South Carolina, South Carolina		-79.47415	34.26938		Sellers,_South_Carolina
29593,_Society_Hill,_South_Carolina,_South_Carolina	PostalZip	12770284	29593, Society Hill, South Carolina, South Carolina		-79.85493	34.48853		Society_Hill,_South_Carolina
29594,_Tatum,_South_Carolina,_South_Carolina	PostalZip	12770285	29594, Tatum, South Carolina, South Carolina		-79.58993	34.64057		Tatum,_South_Carolina
29596,_Wallace,_South_Carolina,_South_Carolina	PostalZip	12770286	29596, Wallace, South Carolina, South Carolina		-79.83993	34.74624		Wallace,_South_Carolina
29597,_North_Myrtle_Beach,_South_Carolina,_South_Carolina	PostalZip	12770287	29597, North Myrtle Beach, South Carolina, South Carolina		-78.68294	33.82247		North_Myrtle_Beach,_South_Carolina
29598,_North_Myrtle_Beach,_South_Carolina,_South_Carolina	PostalZip	12770288	29598, North Myrtle Beach, South Carolina, South Carolina		-78.72942	33.80179		North_Myrtle_Beach,_South_Carolina
29601,_Greenville,_South_Carolina,_South_Carolina	PostalZip	12770289	29601, Greenville, South Carolina, South Carolina		-82.40356	34.84851		Greenville,_South_Carolina
29602,_Greenville,_South_Carolina,_South_Carolina	PostalZip	12770290	29602, Greenville, South Carolina, South Carolina		-82.40783	34.85407		Greenville,_South_Carolina
29603,_Greenville,_South_Carolina,_South_Carolina	PostalZip	12770291	29603, Greenville, South Carolina, South Carolina		-82.3964	34.84989		Greenville,_South_Carolina
29604,_Greenville,_South_Carolina,_South_Carolina	PostalZip	12770292	29604, Greenville, South Carolina, South Carolina		-82.40056	34.8284		Greenville,_South_Carolina
29605,_Greenville,_South_Carolina,_South_Carolina	PostalZip	12770293	29605, Greenville, South Carolina, South Carolina		-82.38121	34.77693		Greenville,_South_Carolina
29606,_Greenville,_South_Carolina,_South_Carolina	PostalZip	12770294	29606, Greenville, South Carolina, South Carolina		-82.36084	34.84242		Greenville,_South_Carolina
29607,_Greenville,_South_Carolina,_South_Carolina	PostalZip	12770295	29607, Greenville, South Carolina, South Carolina		-82.33234	34.80981		Greenville,_South_Carolina
29608,_Greenville,_South_Carolina,_South_Carolina	PostalZip	12770296	29608, Greenville, South Carolina, South Carolina		-82.38034	34.8904		Greenville,_South_Carolina
29609,_Greenville,_South_Carolina,_South_Carolina	PostalZip	12770297	29609, Greenville, South Carolina, South Carolina		-82.38945	34.91367		Greenville,_South_Carolina
29610,_Greenville,_South_Carolina,_South_Carolina	PostalZip	12770298	29610, Greenville, South Carolina, South Carolina		-82.46871	34.88187		Greenville,_South_Carolina
29611,_Greenville,_South_Carolina,_South_Carolina	PostalZip	12770299	29611, Greenville, South Carolina, South Carolina		-82.45957	34.8302		Greenville,_South_Carolina
29612,_Greenville,_South_Carolina,_South_Carolina	PostalZip	12770300	29612, Greenville, South Carolina, South Carolina		-82.24327	34.93801		Greenville,_South_Carolina
29613,_Greenville,_South_Carolina,_South_Carolina	PostalZip	12770301	29613, Greenville, South Carolina, South Carolina		-82.44069	34.92491		Greenville,_South_Carolina
29614,_Greenville,_South_Carolina,_South_Carolina	PostalZip	12770302	29614, Greenville, South Carolina, South Carolina		-82.36377	34.87669		Greenville,_South_Carolina
29615,_Greenville,_South_Carolina,_South_Carolina	PostalZip	12770303	29615, Greenville, South Carolina, South Carolina		-82.29585	34.856		Greenville,_South_Carolina
29616,_Greenville,_South_Carolina,_South_Carolina	PostalZip	12770304	29616, Greenville, South Carolina, South Carolina		-82.32901	34.85447		Greenville,_South_Carolina
29617,_Greenville,_South_Carolina,_South_Carolina	PostalZip	12770305	29617, Greenville, South Carolina, South Carolina		-82.46544	34.91271		Greenville,_South_Carolina
29620,_Abbeville,_South_Carolina,_South_Carolina	PostalZip	12770306	29620, Abbeville, South Carolina, South Carolina		-82.42073	34.17301		Abbeville,_South_Carolina
29621,_Anderson,_South_Carolina,_South_Carolina	PostalZip	12770307	29621, Anderson, South Carolina, South Carolina		-82.60384	34.50584		Anderson,_South_Carolina
29622,_Anderson,_South_Carolina,_South_Carolina	PostalZip	12770308	29622, Anderson, South Carolina, South Carolina		-82.65595	34.52093		Anderson,_South_Carolina
29623,_Anderson,_South_Carolina,_South_Carolina	PostalZip	12770309	29623, Anderson, South Carolina, South Carolina		-82.67098	34.54685		Anderson,_South_Carolina
29624,_Anderson,_South_Carolina,_South_Carolina	PostalZip	12770310	29624, Anderson, South Carolina, South Carolina		-82.62747	34.44025		Anderson,_South_Carolina
29625,_Anderson,_South_Carolina,_South_Carolina	PostalZip	12770311	29625, Anderson, South Carolina, South Carolina		-82.76215	34.55735		Anderson,_South_Carolina
29626,_Anderson,_South_Carolina,_South_Carolina	PostalZip	12770312	29626, Anderson, South Carolina, South Carolina		-82.76435	34.45866		Anderson,_South_Carolina
29627,_Belton,_South_Carolina,_South_Carolina	PostalZip	12770313	29627, Belton, South Carolina, South Carolina		-82.48035	34.5194		Belton,_South_Carolina
29628,_Calhoun_Falls,_South_Carolina,_South_Carolina	PostalZip	12770314	29628, Calhoun Falls, South Carolina, South Carolina		-82.55907	34.09378		Calhoun_Falls,_South_Carolina
29630,_Central,_South_Carolina,_South_Carolina	PostalZip	12770315	29630, Central, South Carolina, South Carolina		-82.79711	34.73902		Central,_South_Carolina
29631,_Clemson,_South_Carolina,_South_Carolina	PostalZip	12770316	29631, Clemson, South Carolina, South Carolina		-82.81711	34.68329		Clemson,_South_Carolina
29632,_Clemson,_South_Carolina,_South_Carolina	PostalZip	12770317	29632, Clemson, South Carolina, South Carolina		-82.83414	34.67492		Clemson,_South_Carolina
29633,_Clemson,_South_Carolina,_South_Carolina	PostalZip	12770318	29633, Clemson, South Carolina, South Carolina		-82.83486	34.68882		Clemson,_South_Carolina
29634,_Clemson,_South_Carolina,_South_Carolina	PostalZip	12770319	29634, Clemson, South Carolina, South Carolina		-82.83927	34.6718		Clemson,_South_Carolina
29636,_Conestee,_South_Carolina,_South_Carolina	PostalZip	12770321	29636, Conestee, South Carolina, South Carolina		-82.34998	34.76799		Conestee,_South_Carolina
29638,_Donalds,_South_Carolina,_South_Carolina	PostalZip	12770322	29638, Donalds, South Carolina, South Carolina		-82.33349	34.3637		Donalds,_South_Carolina
29639,_Due_West,_South_Carolina,_South_Carolina	PostalZip	12770323	29639, Due West, South Carolina, South Carolina		-82.42149	34.30887		Due_West,_South_Carolina
29640,_Easley,_South_Carolina,_South_Carolina	PostalZip	12770324	29640, Easley, South Carolina, South Carolina		-82.57579	34.88748		Easley,_South_Carolina
29641,_Easley,_South_Carolina,_South_Carolina	PostalZip	12770325	29641, Easley, South Carolina, South Carolina		-82.60145	34.81883		Easley,_South_Carolina
29642,_Easley,_South_Carolina,_South_Carolina	PostalZip	12770326	29642, Easley, South Carolina, South Carolina		-82.56586	34.77417		Easley,_South_Carolina
29643,_Fair_Play,_South_Carolina,_South_Carolina	PostalZip	12770327	29643, Fair Play, South Carolina, South Carolina		-82.99885	34.51205		Fair_Play,_South_Carolina
29644,_Fountain_Inn,_South_Carolina,_South_Carolina	PostalZip	12770328	29644, Fountain Inn, South Carolina, South Carolina		-82.19348	34.67159		Fountain_Inn,_South_Carolina
29645,_Gray_Court,_South_Carolina,_South_Carolina	PostalZip	12770329	29645, Gray Court, South Carolina, South Carolina		-82.12632	34.59373		Gray_Court,_South_Carolina
29646,_Greenwood,_South_Carolina,_South_Carolina	PostalZip	12770330	29646, Greenwood, South Carolina, South Carolina		-82.14949	34.14475		Greenwood,_South_Carolina
29647,_Greenwood,_South_Carolina,_South_Carolina	PostalZip	12770331	29647, Greenwood, South Carolina, South Carolina		-82.16265	34.17942		Greenwood,_South_Carolina
29648,_Greenwood,_South_Carolina,_South_Carolina	PostalZip	12770332	29648, Greenwood, South Carolina, South Carolina		-82.15862	34.18966		Greenwood,_South_Carolina
29649,_Greenwood,_South_Carolina,_South_Carolina	PostalZip	12770333	29649, Greenwood, South Carolina, South Carolina		-82.13941	34.24352		Greenwood,_South_Carolina
29650,_Greer,_South_Carolina,_South_Carolina	PostalZip	12770334	29650, Greer, South Carolina, South Carolina		-82.25725	34.89775		Greer,_South_Carolina
29651,_Greer,_South_Carolina,_South_Carolina	PostalZip	12770335	29651, Greer, South Carolina, South Carolina		-82.22266	34.94396		Greer,_South_Carolina
29652,_Greer,_South_Carolina,_South_Carolina	PostalZip	12770336	29652, Greer, South Carolina, South Carolina		-82.24327	34.93801		Greer,_South_Carolina
29653,_Hodges,_South_Carolina,_South_Carolina	PostalZip	12770337	29653, Hodges, South Carolina, South Carolina		-82.23196	34.30126		Hodges,_South_Carolina
29654,_Honea_Path,_South_Carolina,_South_Carolina	PostalZip	12770338	29654, Honea Path, South Carolina, South Carolina		-82.3648	34.46612		Honea_Path,_South_Carolina
29655,_Iva,_South_Carolina,_South_Carolina	PostalZip	12770339	29655, Iva, South Carolina, South Carolina		-82.6426	34.27002		Iva,_South_Carolina
29657,_Liberty,_South_Carolina,_South_Carolina	PostalZip	12770341	29657, Liberty, South Carolina, South Carolina		-82.68868	34.76643		Liberty,_South_Carolina
29658,_Long_Creek,_South_Carolina,_South_Carolina	PostalZip	12770342	29658, Long Creek, South Carolina, South Carolina		-83.29872	34.75871		Long_Creek,_South_Carolina
29659,_Lowndesville,_South_Carolina,_South_Carolina	PostalZip	12770343	29659, Lowndesville, South Carolina, South Carolina		-82.64529	34.21047		Lowndesville,_South_Carolina
29662,_Mauldin,_South_Carolina,_South_Carolina	PostalZip	12770345	29662, Mauldin, South Carolina, South Carolina		-82.3044	34.77831		Mauldin,_South_Carolina
29664,_Mountain_Rest,_South_Carolina,_South_Carolina	PostalZip	12770346	29664, Mountain Rest, South Carolina, South Carolina		-83.1536	34.86597		Mountain_Rest,_South_Carolina
29665,_Newry,_South_Carolina,_South_Carolina	PostalZip	12770347	29665, Newry, South Carolina, South Carolina		-82.9131	34.72358		Newry,_South_Carolina
29666,_Ninety_Six,_South_Carolina,_South_Carolina	PostalZip	12770348	29666, Ninety Six, South Carolina, South Carolina		-81.99248	34.12107		Ninety_Six,_South_Carolina
29667,_Norris,_South_Carolina,_South_Carolina	PostalZip	12770349	29667, Norris, South Carolina, South Carolina		-82.75552	34.76358		Norris,_South_Carolina
29669,_Pelzer,_South_Carolina,_South_Carolina	PostalZip	12770350	29669, Pelzer, South Carolina, South Carolina		-82.41455	34.63976		Pelzer,_South_Carolina
29670,_Pendleton,_South_Carolina,_South_Carolina	PostalZip	12770351	29670, Pendleton, South Carolina, South Carolina		-82.7247	34.64164		Pendleton,_South_Carolina
29671,_Pickens,_South_Carolina,_South_Carolina	PostalZip	12770352	29671, Pickens, South Carolina, South Carolina		-82.71884	34.94025		Pickens,_South_Carolina
29672,_Seneca,_South_Carolina,_South_Carolina	PostalZip	12770353	29672, Seneca, South Carolina, South Carolina		-82.942	34.74979		Seneca,_South_Carolina
29673,_Piedmont,_South_Carolina,_South_Carolina	PostalZip	12770354	29673, Piedmont, South Carolina, South Carolina		-82.45578	34.71885		Piedmont,_South_Carolina
29676,_Salem,_South_Carolina,_South_Carolina	PostalZip	12770356	29676, Salem, South Carolina, South Carolina		-82.96213	34.93363		Salem,_South_Carolina
29677,_Sandy_Springs,_South_Carolina,_South_Carolina	PostalZip	12770357	29677, Sandy Springs, South Carolina, South Carolina		-82.74999	34.59519		Sandy_Springs,_South_Carolina
29678,_Seneca,_South_Carolina,_South_Carolina	PostalZip	12770358	29678, Seneca, South Carolina, South Carolina		-82.93914	34.63439		Seneca,_South_Carolina
29679,_Seneca,_South_Carolina,_South_Carolina	PostalZip	12770359	29679, Seneca, South Carolina, South Carolina		-82.94782	34.68542		Seneca,_South_Carolina
29680,_Simpsonville,_South_Carolina,_South_Carolina	PostalZip	12770360	29680, Simpsonville, South Carolina, South Carolina		-82.29039	34.68918		Simpsonville,_South_Carolina
29681,_Simpsonville,_South_Carolina,_South_Carolina	PostalZip	12770361	29681, Simpsonville, South Carolina, South Carolina		-82.22495	34.77027		Simpsonville,_South_Carolina
29682,_Six_Mile,_South_Carolina,_South_Carolina	PostalZip	12770362	29682, Six Mile, South Carolina, South Carolina		-82.84822	34.83411		Six_Mile,_South_Carolina
29684,_Starr,_South_Carolina,_South_Carolina	PostalZip	12770364	29684, Starr, South Carolina, South Carolina		-82.7238	34.3807		Starr,_South_Carolina
29686,_Tamassee,_South_Carolina,_South_Carolina	PostalZip	12770366	29686, Tamassee, South Carolina, South Carolina		-83.05301	34.90065		Tamassee,_South_Carolina
29687,_Taylors,_South_Carolina,_South_Carolina	PostalZip	12770367	29687, Taylors, South Carolina, South Carolina		-82.32687	34.98407		Taylors,_South_Carolina
29688,_Tigerville,_South_Carolina,_South_Carolina	PostalZip	12770368	29688, Tigerville, South Carolina, South Carolina		-82.36922	35.07056		Tigerville,_South_Carolina
29690,_Travelers_Rest,_South_Carolina,_South_Carolina	PostalZip	12770370	29690, Travelers Rest, South Carolina, South Carolina		-82.42289	35.05804		Travelers_Rest,_South_Carolina
29691,_Walhalla,_South_Carolina,_South_Carolina	PostalZip	12770371	29691, Walhalla, South Carolina, South Carolina		-83.07276	34.7871		Walhalla,_South_Carolina
29692,_Ware_Shoals,_South_Carolina,_South_Carolina	PostalZip	12770372	29692, Ware Shoals, South Carolina, South Carolina		-82.21898	34.4188		Ware_Shoals,_South_Carolina
29693,_Westminster,_South_Carolina,_South_Carolina	PostalZip	12770373	29693, Westminster, South Carolina, South Carolina		-83.15086	34.65377		Westminster,_South_Carolina
29695,_Hodges,_South_Carolina,_South_Carolina	PostalZip	12770374	29695, Hodges, South Carolina, South Carolina		-82.24	34.28		Hodges,_South_Carolina
29696,_West_Union,_South_Carolina,_South_Carolina	PostalZip	12770375	29696, West Union, South Carolina, South Carolina		-83.00633	34.77497		West_Union,_South_Carolina
29697,_Williamston,_South_Carolina,_South_Carolina	PostalZip	12770376	29697, Williamston, South Carolina, South Carolina		-82.54835	34.62985		Williamston,_South_Carolina
29702,_Blacksburg,_South_Carolina,_South_Carolina	PostalZip	12770378	29702, Blacksburg, South Carolina, South Carolina		-81.46988	35.11796		Blacksburg,_South_Carolina
29704,_Catawba,_South_Carolina,_South_Carolina	PostalZip	12770380	29704, Catawba, South Carolina, South Carolina		-80.91528	34.82252		Catawba,_South_Carolina
29706,_Chester,_South_Carolina,_South_Carolina	PostalZip	12770381	29706, Chester, South Carolina, South Carolina		-81.23159	34.71887		Chester,_South_Carolina
29708,_Fort_Mill,_South_Carolina,_South_Carolina	PostalZip	12770382	29708, Fort Mill, South Carolina, South Carolina		-80.98974	35.04604		Fort_Mill,_South_Carolina
29709,_Chesterfield,_South_Carolina,_South_Carolina	PostalZip	12770383	29709, Chesterfield, South Carolina, South Carolina		-80.09837	34.71943		Chesterfield,_South_Carolina
29710,_Clover,_South_Carolina,_South_Carolina	PostalZip	12770384	29710, Clover, South Carolina, South Carolina		-81.2154	35.1033		Clover,_South_Carolina
29712,_Edgemoor,_South_Carolina,_South_Carolina	PostalZip	12770385	29712, Edgemoor, South Carolina, South Carolina		-80.98227	34.79393		Edgemoor,_South_Carolina
29714,_Fort_Lawn,_South_Carolina,_South_Carolina	PostalZip	12770386	29714, Fort Lawn, South Carolina, South Carolina		-80.91478	34.7123		Fort_Lawn,_South_Carolina
29715,_Fort_Mill,_South_Carolina,_South_Carolina	PostalZip	12770387	29715, Fort Mill, South Carolina, South Carolina		-80.92775	35.01131		Fort_Mill,_South_Carolina
29716,_Fort_Mill,_South_Carolina,_South_Carolina	PostalZip	12770388	29716, Fort Mill, South Carolina, South Carolina		-80.93929	35.00716		Fort_Mill,_South_Carolina
29717,_Hickory_Grove,_South_Carolina,_South_Carolina	PostalZip	12770389	29717, Hickory Grove, South Carolina, South Carolina		-81.44273	34.95984		Hickory_Grove,_South_Carolina
29718,_Jefferson,_South_Carolina,_South_Carolina	PostalZip	12770390	29718, Jefferson, South Carolina, South Carolina		-80.35199	34.63608		Jefferson,_South_Carolina
29720,_Lancaster,_South_Carolina,_South_Carolina	PostalZip	12770391	29720, Lancaster, South Carolina, South Carolina		-80.73881	34.74261		Lancaster,_South_Carolina
29721,_Lancaster,_South_Carolina,_South_Carolina	PostalZip	12770392	29721, Lancaster, South Carolina, South Carolina		-80.77322	34.72482		Lancaster,_South_Carolina
29722,_Lancaster,_South_Carolina,_South_Carolina	PostalZip	12770393	29722, Lancaster, South Carolina, South Carolina		-80.75134	34.72674		Lancaster,_South_Carolina
29724,_Lando,_South_Carolina,_South_Carolina	PostalZip	12770394	29724, Lando, South Carolina, South Carolina		-81.00719	34.77421		Lando,_South_Carolina
29726,_McConnells,_South_Carolina,_South_Carolina	PostalZip	12770395	29726, McConnells, South Carolina, South Carolina		-81.23824	34.85769		McConnells,_South_Carolina
29727,_Mount_Croghan,_South_Carolina,_South_Carolina	PostalZip	12770396	29727, Mount Croghan, South Carolina, South Carolina		-80.27071	34.73052		Mount_Croghan,_South_Carolina
29728,_Pageland,_South_Carolina,_South_Carolina	PostalZip	12770397	29728, Pageland, South Carolina, South Carolina		-80.41092	34.76808		Pageland,_South_Carolina
29729,_Richburg,_South_Carolina,_South_Carolina	PostalZip	12770398	29729, Richburg, South Carolina, South Carolina		-81.00201	34.67535		Richburg,_South_Carolina
29730,_Rock_Hill,_South_Carolina,_South_Carolina	PostalZip	12770399	29730, Rock Hill, South Carolina, South Carolina		-81.02147	34.88795		Rock_Hill,_South_Carolina
29731,_Rock_Hill,_South_Carolina,_South_Carolina	PostalZip	12770400	29731, Rock Hill, South Carolina, South Carolina		-81.03261	34.92669		Rock_Hill,_South_Carolina
29732,_Rock_Hill,_South_Carolina,_South_Carolina	PostalZip	12770401	29732, Rock Hill, South Carolina, South Carolina		-81.08004	34.96868		Rock_Hill,_South_Carolina
29733,_Rock_Hill,_South_Carolina,_South_Carolina	PostalZip	12770402	29733, Rock Hill, South Carolina, South Carolina		-81.02918	34.93949		Rock_Hill,_South_Carolina
29734,_Rock_Hill,_South_Carolina,_South_Carolina	PostalZip	12770403	29734, Rock Hill, South Carolina, South Carolina		-81.02451	34.93682		Rock_Hill,_South_Carolina
29741,_Ruby,_South_Carolina,_South_Carolina	PostalZip	12770404	29741, Ruby, South Carolina, South Carolina		-80.20255	34.72879		Ruby,_South_Carolina
29742,_Sharon,_South_Carolina,_South_Carolina	PostalZip	12770405	29742, Sharon, South Carolina, South Carolina		-81.38651	34.873		Sharon,_South_Carolina
29743,_Smyrna,_South_Carolina,_South_Carolina	PostalZip	12770406	29743, Smyrna, South Carolina, South Carolina		-81.41004	35.02885		Smyrna,_South_Carolina
29744,_Van_Wyck,_South_Carolina,_South_Carolina	PostalZip	12770407	29744, Van Wyck, South Carolina, South Carolina		-80.84844	34.86156		Van_Wyck,_South_Carolina
29745,_York,_South_Carolina,_South_Carolina	PostalZip	12770408	29745, York, South Carolina, South Carolina		-81.21655	34.99323		York,_South_Carolina
29801,_Aiken,_South_Carolina,_South_Carolina	PostalZip	12770409	29801, Aiken, South Carolina, South Carolina		-81.69779	33.5861		Aiken,_South_Carolina
29802,_Aiken,_South_Carolina,_South_Carolina	PostalZip	12770410	29802, Aiken, South Carolina, South Carolina		-81.7206	33.56586		Aiken,_South_Carolina
29803,_Aiken,_South_Carolina,_South_Carolina	PostalZip	12770411	29803, Aiken, South Carolina, South Carolina		-81.69854	33.45457		Aiken,_South_Carolina
29804,_Aiken,_South_Carolina,_South_Carolina	PostalZip	12770412	29804, Aiken, South Carolina, South Carolina		-81.74333	33.50293		Aiken,_South_Carolina
29805,_Aiken,_South_Carolina,_South_Carolina	PostalZip	12770413	29805, Aiken, South Carolina, South Carolina		-81.60756	33.65142		Aiken,_South_Carolina
29808,_Aiken,_South_Carolina,_South_Carolina	PostalZip	12770414	29808, Aiken, South Carolina, South Carolina		-81.6129	33.2445		Aiken,_South_Carolina
29809,_New_Ellenton,_South_Carolina,_South_Carolina	PostalZip	12770415	29809, New Ellenton, South Carolina, South Carolina		-81.69075	33.41551		New_Ellenton,_South_Carolina
29810,_Allendale,_South_Carolina,_South_Carolina	PostalZip	12770416	29810, Allendale, South Carolina, South Carolina		-81.38569	32.99649		Allendale,_South_Carolina
29812,_Barnwell,_South_Carolina,_South_Carolina	PostalZip	12770417	29812, Barnwell, South Carolina, South Carolina		-81.38499	33.22279		Barnwell,_South_Carolina
29813,_Hilda,_South_Carolina,_South_Carolina	PostalZip	12770418	29813, Hilda, South Carolina, South Carolina		-81.24832	33.2759		Hilda,_South_Carolina
29816,_Bath,_South_Carolina,_South_Carolina	PostalZip	12770419	29816, Bath, South Carolina, South Carolina		-81.87526	33.50144		Bath,_South_Carolina
29817,_Blackville,_South_Carolina,_South_Carolina	PostalZip	12770420	29817, Blackville, South Carolina, South Carolina		-81.27292	33.37125		Blackville,_South_Carolina
29819,_Bradley,_South_Carolina,_South_Carolina	PostalZip	12770421	29819, Bradley, South Carolina, South Carolina		-82.22128	34.04238		Bradley,_South_Carolina
29821,_Clarks_Hill,_South_Carolina,_South_Carolina	PostalZip	12770422	29821, Clarks Hill, South Carolina, South Carolina		-82.11473	33.63976		Clarks_Hill,_South_Carolina
29822,_Clearwater,_South_Carolina,_South_Carolina	PostalZip	12770423	29822, Clearwater, South Carolina, South Carolina		-81.90191	33.50335		Clearwater,_South_Carolina
29824,_Edgefield,_South_Carolina,_South_Carolina	PostalZip	12770424	29824, Edgefield, South Carolina, South Carolina		-81.99813	33.8155		Edgefield,_South_Carolina
29826,_Elko,_South_Carolina,_South_Carolina	PostalZip	12770425	29826, Elko, South Carolina, South Carolina		-81.36951	33.24537		Elko,_South_Carolina
29827,_Fairfax,_South_Carolina,_South_Carolina	PostalZip	12770426	29827, Fairfax, South Carolina, South Carolina		-81.26374	32.95505		Fairfax,_South_Carolina
29828,_Gloverville,_South_Carolina,_South_Carolina	PostalZip	12770427	29828, Gloverville, South Carolina, South Carolina		-81.82786	33.52401		Gloverville,_South_Carolina
29829,_Graniteville,_South_Carolina,_South_Carolina	PostalZip	12770428	29829, Graniteville, South Carolina, South Carolina		-81.85178	33.57693		Graniteville,_South_Carolina
29831,_Jackson,_South_Carolina,_South_Carolina	PostalZip	12770429	29831, Jackson, South Carolina, South Carolina		-81.6873	33.26846		Jackson,_South_Carolina
29832,_Johnston,_South_Carolina,_South_Carolina	PostalZip	12770430	29832, Johnston, South Carolina, South Carolina		-81.80504	33.83537		Johnston,_South_Carolina
29834,_Langley,_South_Carolina,_South_Carolina	PostalZip	12770431	29834, Langley, South Carolina, South Carolina		-81.8439	33.518		Langley,_South_Carolina
29835,_McCormick,_South_Carolina,_South_Carolina	PostalZip	12770432	29835, McCormick, South Carolina, South Carolina		-82.30123	33.91686		McCormick,_South_Carolina
29836,_Martin,_South_Carolina,_South_Carolina	PostalZip	12770433	29836, Martin, South Carolina, South Carolina		-81.49804	33.08595		Martin,_South_Carolina
29838,_Modoc,_South_Carolina,_South_Carolina	PostalZip	12770434	29838, Modoc, South Carolina, South Carolina		-82.16592	33.73644		Modoc,_South_Carolina
29840,_Mount_Carmel,_South_Carolina,_South_Carolina	PostalZip	12770436	29840, Mount Carmel, South Carolina, South Carolina		-82.53149	33.99359		Mount_Carmel,_South_Carolina
29841,_North_Augusta,_South_Carolina,_South_Carolina	PostalZip	12770437	29841, North Augusta, South Carolina, South Carolina		-81.94146	33.52422		North_Augusta,_South_Carolina
29842,_Beech_Island,_South_Carolina,_South_Carolina	PostalZip	12770438	29842, Beech Island, South Carolina, South Carolina		-81.86496	33.44921		Beech_Island,_South_Carolina
29843,_Olar,_South_Carolina,_South_Carolina	PostalZip	12770439	29843, Olar, South Carolina, South Carolina		-81.17695	33.18012		Olar,_South_Carolina
29844,_Parksville,_South_Carolina,_South_Carolina	PostalZip	12770440	29844, Parksville, South Carolina, South Carolina		-82.21908	33.78537		Parksville,_South_Carolina
29845,_Plum_Branch,_South_Carolina,_South_Carolina	PostalZip	12770441	29845, Plum Branch, South Carolina, South Carolina		-82.20827	33.82278		Plum_Branch,_South_Carolina
29846,_Sycamore,_South_Carolina,_South_Carolina	PostalZip	12770442	29846, Sycamore, South Carolina, South Carolina		-81.22399	33.03584		Sycamore,_South_Carolina
29847,_Trenton,_South_Carolina,_South_Carolina	PostalZip	12770443	29847, Trenton, South Carolina, South Carolina		-81.84608	33.70073		Trenton,_South_Carolina
29848,_Troy,_South_Carolina,_South_Carolina	PostalZip	12770444	29848, Troy, South Carolina, South Carolina		-82.17348	33.99136		Troy,_South_Carolina
29849,_Ulmer,_South_Carolina,_South_Carolina	PostalZip	12770445	29849, Ulmer, South Carolina, South Carolina		-81.23851	33.09177		Ulmer,_South_Carolina
29850,_Vaucluse,_South_Carolina,_South_Carolina	PostalZip	12770446	29850, Vaucluse, South Carolina, South Carolina		-81.80742	33.6067		Vaucluse,_South_Carolina
29851,_Warrenville,_South_Carolina,_South_Carolina	PostalZip	12770447	29851, Warrenville, South Carolina, South Carolina		-81.81713	33.51124		Warrenville,_South_Carolina
29853,_Williston,_South_Carolina,_South_Carolina	PostalZip	12770448	29853, Williston, South Carolina, South Carolina		-81.42756	33.40675		Williston,_South_Carolina
29856,_Windsor,_South_Carolina,_South_Carolina	PostalZip	12770449	29856, Windsor, South Carolina, South Carolina		-81.51073	33.48528		Windsor,_South_Carolina
29860,_North_Augusta,_South_Carolina,_South_Carolina	PostalZip	12770450	29860, North Augusta, South Carolina, South Carolina		-81.97389	33.60551		North_Augusta,_South_Carolina
29861,_North_Augusta,_South_Carolina,_South_Carolina	PostalZip	12770451	29861, North Augusta, South Carolina, South Carolina		-81.96247	33.50758		North_Augusta,_South_Carolina
29901,_Beaufort,_South_Carolina,_South_Carolina	PostalZip	12770452	29901, Beaufort, South Carolina, South Carolina		-80.67285	32.43372		Beaufort,_South_Carolina
29902,_Beaufort,_South_Carolina,_South_Carolina	PostalZip	12770453	29902, Beaufort, South Carolina, South Carolina		-80.69755	32.37729		Beaufort,_South_Carolina
29903,_Beaufort,_South_Carolina,_South_Carolina	PostalZip	12770454	29903, Beaufort, South Carolina, South Carolina		-80.70471	32.44001		Beaufort,_South_Carolina
29904,_Beaufort,_South_Carolina,_South_Carolina	PostalZip	12770455	29904, Beaufort, South Carolina, South Carolina		-80.72745	32.46083		Beaufort,_South_Carolina
29905,_Beaufort,_South_Carolina,_South_Carolina	PostalZip	12770456	29905, Beaufort, South Carolina, South Carolina		-80.67889	32.34972		Beaufort,_South_Carolina
29906,_Beaufort,_South_Carolina,_South_Carolina	PostalZip	12770457	29906, Beaufort, South Carolina, South Carolina		-80.74818	32.45169		Beaufort,_South_Carolina
29910,_Bluffton,_South_Carolina,_South_Carolina	PostalZip	12770458	29910, Bluffton, South Carolina, South Carolina		-80.88968	32.22412		Bluffton,_South_Carolina
29911,_Brunson,_South_Carolina,_South_Carolina	PostalZip	12770459	29911, Brunson, South Carolina, South Carolina		-81.14877	32.93429		Brunson,_South_Carolina
29912,_Coosawhatchie,_South_Carolina,_South_Carolina	PostalZip	12770460	29912, Coosawhatchie, South Carolina, South Carolina		-80.93057	32.58358		Coosawhatchie,_South_Carolina
29915,_Daufuskie_Island,_South_Carolina	PostalZip	12770463	29915, Daufuskie Island, South Carolina		-80.87659	32.1174		Daufuskie_Island
29918,_Estill,_South_Carolina,_South_Carolina	PostalZip	12770465	29918, Estill, South Carolina, South Carolina		-81.26342	32.73573		Estill,_South_Carolina
29920,_Saint_Helena_Island_(South_Carolina),_South_Carolina	PostalZip	12770466	29920, Saint Helena Island (South Carolina), South Carolina		-80.55198	32.36305		Saint_Helena_Island_(South_Carolina)
29921,_Furman,_South_Carolina,_South_Carolina	PostalZip	12770467	29921, Furman, South Carolina, South Carolina		-81.18144	32.67369		Furman,_South_Carolina
29923,_Gifford,_South_Carolina,_South_Carolina	PostalZip	12770469	29923, Gifford, South Carolina, South Carolina		-81.23725	32.86014		Gifford,_South_Carolina
29924,_Hampton,_South_Carolina,_South_Carolina	PostalZip	12770470	29924, Hampton, South Carolina, South Carolina		-81.1019	32.88647		Hampton,_South_Carolina
29925,_Hilton_Head_Island,_South_Carolina,_South_Carolina	PostalZip	12770471	29925, Hilton Head Island, South Carolina, South Carolina		-80.73813	32.21627		Hilton_Head_Island,_South_Carolina
29926,_Hilton_Head_Island,_South_Carolina,_South_Carolina	PostalZip	12770472	29926, Hilton Head Island, South Carolina, South Carolina		-80.74923	32.22646		Hilton_Head_Island,_South_Carolina
29927,_Hardeeville,_South_Carolina,_South_Carolina	PostalZip	12770473	29927, Hardeeville, South Carolina, South Carolina		-81.04505	32.24012		Hardeeville,_South_Carolina
29928,_Hilton_Head_Island,_South_Carolina,_South_Carolina	PostalZip	12770474	29928, Hilton Head Island, South Carolina, South Carolina		-80.75492	32.16174		Hilton_Head_Island,_South_Carolina
29929,_Islandton,_South_Carolina,_South_Carolina	PostalZip	12770475	29929, Islandton, South Carolina, South Carolina		-80.93781	32.92973		Islandton,_South_Carolina
29931,_Lobeco,_South_Carolina,_South_Carolina	PostalZip	12770476	29931, Lobeco, South Carolina, South Carolina		-80.7436	32.55248		Lobeco,_South_Carolina
29932,_Luray,_South_Carolina,_South_Carolina	PostalZip	12770477	29932, Luray, South Carolina, South Carolina		-81.32723	32.82509		Luray,_South_Carolina
29935,_Port_Royal,_South_Carolina,_South_Carolina	PostalZip	12770480	29935, Port Royal, South Carolina, South Carolina		-80.69463	32.38352		Port_Royal,_South_Carolina
29936,_Ridgeland,_South_Carolina,_South_Carolina	PostalZip	12770481	29936, Ridgeland, South Carolina, South Carolina		-80.96437	32.48978		Ridgeland,_South_Carolina
29938,_Hilton_Head_Island,_South_Carolina,_South_Carolina	PostalZip	12770482	29938, Hilton Head Island, South Carolina, South Carolina		-80.76715	32.16253		Hilton_Head_Island,_South_Carolina
29939,_Scotia,_South_Carolina,_South_Carolina	PostalZip	12770483	29939, Scotia, South Carolina, South Carolina		-81.24197	32.68261		Scotia,_South_Carolina
29940,_Seabrook,_South_Carolina,_South_Carolina	PostalZip	12770484	29940, Seabrook, South Carolina, South Carolina		-80.723	32.55593		Seabrook,_South_Carolina
29941,_Sheldon,_South_Carolina,_South_Carolina	PostalZip	12770485	29941, Sheldon, South Carolina, South Carolina		-80.81216	32.56378		Sheldon,_South_Carolina
29944,_Varnville,_South_Carolina,_South_Carolina	PostalZip	12770487	29944, Varnville, South Carolina, South Carolina		-81.03093	32.80672		Varnville,_South_Carolina
29945,_Yemassee,_South_Carolina,_South_Carolina	PostalZip	12770488	29945, Yemassee, South Carolina, South Carolina		-80.79212	32.6785		Yemassee,_South_Carolina
46324,_Hammond,_Indiana,_Indiana	PostalZip	12777720	46324, Hammond, Indiana, Indiana		-87.50228	41.58343		Hammond,_Indiana
46394,_Whiting,_Indiana,_Indiana	PostalZip	12777758	46394, Whiting, Indiana, Indiana		-87.49465	41.67443		Whiting,_Indiana
53142,_Kenosha,_Wisconsin,_Wisconsin	PostalZip	12780860	53142, Kenosha, Wisconsin, Wisconsin		-87.9365	42.54511		Kenosha,_Wisconsin
53143,_Kenosha,_Wisconsin,_Wisconsin	PostalZip	12780861	53143, Kenosha, Wisconsin, Wisconsin		-87.83028	42.56148		Kenosha,_Wisconsin
53215,_Milwaukee,_Wisconsin	PostalZip	12780913	53215, Milwaukee, Wisconsin		-87.94609	42.99993		Milwaukee
54302,_Green_Bay,_Wisconsin,_Wisconsin	PostalZip	12781268	54302, Green Bay, Wisconsin, Wisconsin		-87.97574	44.5074		Green_Bay,_Wisconsin
60002,_Antioch,_Illinois,_Illinois	PostalZip	12783933	60002, Antioch, Illinois, Illinois		-88.08728	42.46607		Antioch,_Illinois
60004,_Arlington_Heights,_Illinois,_Illinois	PostalZip	12783934	60004, Arlington Heights, Illinois, Illinois		-87.97894	42.11191		Arlington_Heights,_Illinois
60005,_Arlington_Heights,_Illinois,_Illinois	PostalZip	12783935	60005, Arlington Heights, Illinois, Illinois		-87.98515	42.06448		Arlington_Heights,_Illinois
60007,_Elk_Grove_Village,_Illinois,_Illinois	PostalZip	12783937	60007, Elk Grove Village, Illinois, Illinois		-87.99705	42.01437		Elk_Grove_Village,_Illinois
60008,_Rolling_Meadows,_Illinois,_Illinois	PostalZip	12783938	60008, Rolling Meadows, Illinois, Illinois		-88.02401	42.0739		Rolling_Meadows,_Illinois
60010,_Barrington_station,_Illinois	PostalZip	12783940	60010, Barrington station, Illinois		-88.16618	42.14843		Barrington_station
60012,_Crystal_Lake,_Illinois,_Illinois	PostalZip	12783942	60012, Crystal Lake, Illinois, Illinois		-88.31163	42.27212		Crystal_Lake,_Illinois
60013,_Cary,_Illinois,_Illinois	PostalZip	12783943	60013, Cary, Illinois, Illinois		-88.23468	42.22257		Cary,_Illinois
60014,_Crystal_Lake,_Illinois,_Illinois	PostalZip	12783944	60014, Crystal Lake, Illinois, Illinois		-88.32698	42.23095		Crystal_Lake,_Illinois
60015,_Deerfield,_Illinois,_Illinois	PostalZip	12783945	60015, Deerfield, Illinois, Illinois		-87.8748	42.17271		Deerfield,_Illinois
60016,_Des_Plaines,_Illinois,_Illinois	PostalZip	12783946	60016, Des Plaines, Illinois, Illinois		-87.89035	42.05081		Des_Plaines,_Illinois
60018,_Des_Plaines,_Illinois,_Illinois	PostalZip	12783948	60018, Des Plaines, Illinois, Illinois		-87.89725	42.00817		Des_Plaines,_Illinois
60020,_Fox_Lake,_Illinois,_Illinois	PostalZip	12783950	60020, Fox Lake, Illinois, Illinois		-88.17586	42.39866		Fox_Lake,_Illinois
60021,_Fox_River_Grove,_Illinois,_Illinois	PostalZip	12783951	60021, Fox River Grove, Illinois, Illinois		-88.21674	42.19474		Fox_River_Grove,_Illinois
60022,_Glencoe,_Illinois,_Illinois	PostalZip	12783952	60022, Glencoe, Illinois, Illinois		-87.76365	42.13581		Glencoe,_Illinois
60025,_Glenview,_Illinois,_Illinois	PostalZip	12783953	60025, Glenview, Illinois, Illinois		-87.81886	42.07608		Glenview,_Illinois
60026,_Glenview,_Illinois,_Illinois	PostalZip	12783954	60026, Glenview, Illinois, Illinois		-87.83718	42.09242		Glenview,_Illinois
60030,_Grayslake,_Illinois,_Illinois	PostalZip	12783956	60030, Grayslake, Illinois, Illinois		-88.04466	42.33277		Grayslake,_Illinois
60031,_Gurnee,_Illinois,_Illinois	PostalZip	12783957	60031, Gurnee, Illinois, Illinois		-87.94025	42.37533		Gurnee,_Illinois
60033,_Harvard,_Illinois,_Illinois	PostalZip	12783958	60033, Harvard, Illinois, Illinois		-88.60785	42.42461		Harvard,_Illinois
60035,_Highland_Park,_Illinois,_Illinois	PostalZip	12783960	60035, Highland Park, Illinois, Illinois		-87.81027	42.18233		Highland_Park,_Illinois
60040,_Highwood,_Illinois,_Illinois	PostalZip	12783964	60040, Highwood, Illinois, Illinois		-87.81348	42.20576		Highwood,_Illinois
60041,_Ingleside,_Illinois,_Illinois	PostalZip	12783965	60041, Ingleside, Illinois, Illinois		-88.15628	42.37213		Ingleside,_Illinois
60042,_Island_Lake,_Illinois,_Illinois	PostalZip	12783966	60042, Island Lake, Illinois, Illinois		-88.20026	42.28064		Island_Lake,_Illinois
60043,_Kenilworth,_Illinois,_Illinois	PostalZip	12783967	60043, Kenilworth, Illinois, Illinois		-87.71471	42.08887		Kenilworth,_Illinois
60044,_Lake_Bluff,_Illinois,_Illinois	PostalZip	12783968	60044, Lake Bluff, Illinois, Illinois		-87.86709	42.28972		Lake_Bluff,_Illinois
60045,_Lake_Forest,_Illinois,_Illinois	PostalZip	12783969	60045, Lake Forest, Illinois, Illinois		-87.86951	42.23852		Lake_Forest,_Illinois
60046,_Lake_Villa,_Illinois,_Illinois	PostalZip	12783970	60046, Lake Villa, Illinois, Illinois		-88.06022	42.41417		Lake_Villa,_Illinois
60047,_Lake_Zurich,_Illinois,_Illinois	PostalZip	12783971	60047, Lake Zurich, Illinois, Illinois		-88.04573	42.20194		Lake_Zurich,_Illinois
60048,_Libertyville,_Illinois,_Illinois	PostalZip	12783972	60048, Libertyville, Illinois, Illinois		-87.94621	42.29441		Libertyville,_Illinois
60050,_McHenry,_Illinois,_Illinois	PostalZip	12783974	60050, McHenry, Illinois, Illinois		-88.29355	42.33251		McHenry,_Illinois
60051,_McHenry,_Illinois,_Illinois	PostalZip	12783975	60051, McHenry, Illinois, Illinois		-88.22746	42.35461		McHenry,_Illinois
60053,_Morton_Grove,_Illinois,_Illinois	PostalZip	12783976	60053, Morton Grove, Illinois, Illinois		-87.78876	42.04228		Morton_Grove,_Illinois
60056,_Mount_Prospect,_Illinois,_Illinois	PostalZip	12783978	60056, Mount Prospect, Illinois, Illinois		-87.93403	42.06697		Mount_Prospect,_Illinois
60060,_Mundelein,_Illinois,_Illinois	PostalZip	12783979	60060, Mundelein, Illinois, Illinois		-88.0383	42.26763		Mundelein,_Illinois
60061,_Vernon_Hills,_Illinois,_Illinois	PostalZip	12783980	60061, Vernon Hills, Illinois, Illinois		-87.96039	42.23344		Vernon_Hills,_Illinois
60062,_Northbrook,_Illinois,_Illinois	PostalZip	12783981	60062, Northbrook, Illinois, Illinois		-87.84129	42.12755		Northbrook,_Illinois
60064,_North_Chicago,_Illinois,_Illinois	PostalZip	12783982	60064, North Chicago, Illinois, Illinois		-87.86443	42.32176		North_Chicago,_Illinois
60067,_Palatine,_Illinois,_Illinois	PostalZip	12783984	60067, Palatine, Illinois, Illinois		-88.0659	42.10838		Palatine,_Illinois
60068,_Park_Ridge,_Illinois,_Illinois	PostalZip	12783985	60068, Park Ridge, Illinois, Illinois		-87.84487	42.01307		Park_Ridge,_Illinois
60069,_Lincolnshire,_Illinois,_Illinois	PostalZip	12783986	60069, Lincolnshire, Illinois, Illinois		-87.92514	42.19542		Lincolnshire,_Illinois
60070,_Prospect_Heights,_Illinois,_Illinois	PostalZip	12783987	60070, Prospect Heights, Illinois, Illinois		-87.92859	42.10342		Prospect_Heights,_Illinois
60071,_Richmond,_Illinois,_Illinois	PostalZip	12783988	60071, Richmond, Illinois, Illinois		-88.31347	42.46224		Richmond,_Illinois
60073,_Round_Lake,_Illinois,_Illinois	PostalZip	12783990	60073, Round Lake, Illinois, Illinois		-88.11058	42.34911		Round_Lake,_Illinois
60074,_Palatine,_Illinois,_Illinois	PostalZip	12783991	60074, Palatine, Illinois, Illinois		-88.03619	42.13374		Palatine,_Illinois
60076,_Skokie,_Illinois,_Illinois	PostalZip	12783993	60076, Skokie, Illinois, Illinois		-87.7301	42.0353		Skokie,_Illinois
60077,_Skokie,_Illinois,_Illinois	PostalZip	12783994	60077, Skokie, Illinois, Illinois		-87.75725	42.03458		Skokie,_Illinois
60081,_Spring_Grove,_Illinois,_Illinois	PostalZip	12783998	60081, Spring Grove, Illinois, Illinois		-88.22211	42.45059		Spring_Grove,_Illinois
60083,_Wadsworth,_Illinois,_Illinois	PostalZip	12784000	60083, Wadsworth, Illinois, Illinois		-87.94624	42.43452		Wadsworth,_Illinois
60084,_Wauconda,_Illinois,_Illinois	PostalZip	12784001	60084, Wauconda, Illinois, Illinois		-88.14281	42.26932		Wauconda,_Illinois
60085,_Waukegan,_Illinois,_Illinois	PostalZip	12784002	60085, Waukegan, Illinois, Illinois		-87.86256	42.35769		Waukegan,_Illinois
60087,_Waukegan,_Illinois,_Illinois	PostalZip	12784004	60087, Waukegan, Illinois, Illinois		-87.85425	42.40499		Waukegan,_Illinois
60089,_Buffalo_Grove,_Illinois,_Illinois	PostalZip	12784006	60089, Buffalo Grove, Illinois, Illinois		-87.96183	42.16735		Buffalo_Grove,_Illinois
60090,_Wheeling_station_(Illinois),_Illinois	PostalZip	12784007	60090, Wheeling station (Illinois), Illinois		-87.92138	42.12942		Wheeling_station_(Illinois)
60091,_Wilmette,_Illinois,_Illinois	PostalZip	12784008	60091, Wilmette, Illinois, Illinois		-87.72791	42.07702		Wilmette,_Illinois
60093,_Winnetka,_Illinois,_Illinois	PostalZip	12784010	60093, Winnetka, Illinois, Illinois		-87.75808	42.10336		Winnetka,_Illinois
60096,_Winthrop_Harbor,_Illinois,_Illinois	PostalZip	12784013	60096, Winthrop Harbor, Illinois, Illinois		-87.83042	42.48082		Winthrop_Harbor,_Illinois
60097,_Wonder_Lake_(CDP),_Illinois,_Illinois	PostalZip	12784014	60097, Wonder Lake (CDP), Illinois, Illinois		-88.35576	42.3922		Wonder_Lake_(CDP),_Illinois
60098,_Woodstock,_Illinois,_Illinois	PostalZip	12784015	60098, Woodstock, Illinois, Illinois		-88.45505	42.32673		Woodstock,_Illinois
60099,_Zion,_Illinois,_Illinois	PostalZip	12784016	60099, Zion, Illinois, Illinois		-87.86967	42.46065		Zion,_Illinois
60101,_Addison,_Illinois,_Illinois	PostalZip	12784017	60101, Addison, Illinois, Illinois		-88.01113	41.93118		Addison,_Illinois
60102,_Algonquin,_Illinois,_Illinois	PostalZip	12784018	60102, Algonquin, Illinois, Illinois		-88.30987	42.16348		Algonquin,_Illinois
60103,_Bartlett,_Illinois,_Illinois	PostalZip	12784019	60103, Bartlett, Illinois, Illinois		-88.20193	41.97822		Bartlett,_Illinois
60104,_Bellwood_station_(Metra),_Illinois	PostalZip	12784020	60104, Bellwood station (Metra), Illinois		-87.87612	41.88294		Bellwood_station_(Metra)
60106,_Bensenville,_Illinois,_Illinois	PostalZip	12784022	60106, Bensenville, Illinois, Illinois		-87.94722	41.95733		Bensenville,_Illinois
60107,_Streamwood,_Illinois,_Illinois	PostalZip	12784023	60107, Streamwood, Illinois, Illinois		-88.17877	42.02268		Streamwood,_Illinois
60108,_Bloomingdale,_Illinois,_Illinois	PostalZip	12784024	60108, Bloomingdale, Illinois, Illinois		-88.09176	41.94956		Bloomingdale,_Illinois
60109,_Burlington,_Illinois,_Illinois	PostalZip	12784025	60109, Burlington, Illinois, Illinois		-88.56343	42.04022		Burlington,_Illinois
60110,_Carpentersville,_Illinois,_Illinois	PostalZip	12784026	60110, Carpentersville, Illinois, Illinois		-88.28566	42.12326		Carpentersville,_Illinois
60112,_Cortland,_Illinois,_Illinois	PostalZip	12784028	60112, Cortland, Illinois, Illinois		-88.68815	41.92289		Cortland,_Illinois
60115,_DeKalb,_Illinois,_Illinois	PostalZip	12784031	60115, DeKalb, Illinois, Illinois		-88.7506	41.90269		DeKalb,_Illinois
60119,_Elburn,_Illinois,_Illinois	PostalZip	12784035	60119, Elburn, Illinois, Illinois		-88.4729	41.86262		Elburn,_Illinois
60120,_Elgin,_Illinois,_Illinois	PostalZip	12784036	60120, Elgin, Illinois, Illinois		-88.24854	42.02598		Elgin,_Illinois
60123,_Elgin,_Illinois,_Illinois	PostalZip	12784039	60123, Elgin, Illinois, Illinois		-88.31225	42.04051		Elgin,_Illinois
60126,_Elmhurst,_Illinois,_Illinois	PostalZip	12784041	60126, Elmhurst, Illinois, Illinois		-87.94179	41.89778		Elmhurst,_Illinois
60130,_Forest_Park,_Illinois,_Illinois	PostalZip	12784044	60130, Forest Park, Illinois, Illinois		-87.81544	41.86781		Forest_Park,_Illinois
60131,_Franklin_Park,_Illinois,_Illinois	PostalZip	12784045	60131, Franklin Park, Illinois, Illinois		-87.88234	41.93763		Franklin_Park,_Illinois
60134,_Geneva,_Illinois,_Illinois	PostalZip	12784047	60134, Geneva, Illinois, Illinois		-88.338	41.87905		Geneva,_Illinois
60135,_Genoa,_Illinois,_Illinois	PostalZip	12784048	60135, Genoa, Illinois, Illinois		-88.67839	42.11218		Genoa,_Illinois
60136,_Gilberts,_Illinois,_Illinois	PostalZip	12784049	60136, Gilberts, Illinois, Illinois		-88.38213	42.1115		Gilberts,_Illinois
60137,_Glen_Ellyn,_Illinois,_Illinois	PostalZip	12784050	60137, Glen Ellyn, Illinois, Illinois		-88.06203	41.86521		Glen_Ellyn,_Illinois
60139,_Glendale_Heights,_Illinois,_Illinois	PostalZip	12784052	60139, Glendale Heights, Illinois, Illinois		-88.07758	41.91987		Glendale_Heights,_Illinois
60140,_Hampshire,_Illinois,_Illinois	PostalZip	12784053	60140, Hampshire, Illinois, Illinois		-88.50864	42.07845		Hampshire,_Illinois
60141,_Hines,_Illinois,_Illinois	PostalZip	12784054	60141, Hines, Illinois, Illinois		-87.83197	41.85719		Hines,_Illinois
60142,_Huntley,_Illinois,_Illinois	PostalZip	12784055	60142, Huntley, Illinois, Illinois		-88.44894	42.1832		Huntley,_Illinois
60143,_Itasca_station,_Illinois	PostalZip	12784056	60143, Itasca station, Illinois		-88.01957	41.97382		Itasca_station
60148,_Lombard,_Illinois,_Illinois	PostalZip	12784061	60148, Lombard, Illinois, Illinois		-88.01826	41.87465		Lombard,_Illinois
60152,_Marengo,_Illinois,_Illinois	PostalZip	12784064	60152, Marengo, Illinois, Illinois		-88.62565	42.24041		Marengo,_Illinois
60153,_Maywood,_Illinois,_Illinois	PostalZip	12784065	60153, Maywood, Illinois, Illinois		-87.84343	41.87879		Maywood,_Illinois
60154,_Westchester,_Illinois,_Illinois	PostalZip	12784066	60154, Westchester, Illinois, Illinois		-87.88587	41.84965		Westchester,_Illinois
60157,_Medinah,_Illinois,_Illinois	PostalZip	12784067	60157, Medinah, Illinois, Illinois		-88.05306	41.97284		Medinah,_Illinois
60160,_Melrose_Park,_Illinois,_Illinois	PostalZip	12784069	60160, Melrose Park, Illinois, Illinois		-87.86258	41.90334		Melrose_Park,_Illinois
60162,_Hillside,_Illinois,_Illinois	PostalZip	12784071	60162, Hillside, Illinois, Illinois		-87.90114	41.86715		Hillside,_Illinois
60163,_Berkeley,_Illinois,_Illinois	PostalZip	12784072	60163, Berkeley, Illinois, Illinois		-87.91015	41.88964		Berkeley,_Illinois
60164,_Melrose_Park,_Illinois,_Illinois	PostalZip	12784073	60164, Melrose Park, Illinois, Illinois		-87.89961	41.91791		Melrose_Park,_Illinois
60165,_Stone_Park,_Illinois,_Illinois	PostalZip	12784074	60165, Stone Park, Illinois, Illinois		-87.88064	41.90332		Stone_Park,_Illinois
60171,_River_Grove,_Illinois,_Illinois	PostalZip	12784077	60171, River Grove, Illinois, Illinois		-87.83779	41.92396		River_Grove,_Illinois
60172,_Roselle,_Illinois,_Illinois	PostalZip	12784078	60172, Roselle, Illinois, Illinois		-88.09915	41.976		Roselle,_Illinois
60173,_Schaumburg,_Illinois,_Illinois	PostalZip	12784079	60173, Schaumburg, Illinois, Illinois		-88.05015	42.05024		Schaumburg,_Illinois
60174,_St._Charles,_Illinois,_Illinois	PostalZip	12784080	60174, St. Charles, Illinois, Illinois		-88.29875	41.92703		St._Charles,_Illinois
60175,_St._Charles,_Illinois,_Illinois	PostalZip	12784081	60175, St. Charles, Illinois, Illinois		-88.38983	41.94622		St._Charles,_Illinois
60176,_Schiller_Park,_Illinois,_Illinois	PostalZip	12784082	60176, Schiller Park, Illinois, Illinois		-87.86927	41.9588		Schiller_Park,_Illinois
60177,_South_Elgin,_Illinois,_Illinois	PostalZip	12784083	60177, South Elgin, Illinois, Illinois		-88.31016	41.9886		South_Elgin,_Illinois
60178,_Sycamore,_Illinois,_Illinois	PostalZip	12784084	60178, Sycamore, Illinois, Illinois		-88.66773	42.00744		Sycamore,_Illinois
60181,_Villa_Park,_Illinois,_Illinois	PostalZip	12784087	60181, Villa Park, Illinois, Illinois		-87.97581	41.87795		Villa_Park,_Illinois
60185,_West_Chicago,_Illinois,_Illinois	PostalZip	12784091	60185, West Chicago, Illinois, Illinois		-88.21025	41.89676		West_Chicago,_Illinois
60187,_Wheaton,_Illinois,_Illinois	PostalZip	12784093	60187, Wheaton, Illinois, Illinois		-88.1124	41.8726		Wheaton,_Illinois
60188,_Carol_Stream,_Illinois,_Illinois	PostalZip	12784094	60188, Carol Stream, Illinois, Illinois		-88.12893	41.91569		Carol_Stream,_Illinois
60189,_Wheaton,_Illinois,_Illinois	PostalZip	12784095	60189, Wheaton, Illinois, Illinois		-88.11851	41.8411		Wheaton,_Illinois
60190,_Winfield,_Illinois,_Illinois	PostalZip	12784096	60190, Winfield, Illinois, Illinois		-88.15637	41.87288		Winfield,_Illinois
60191,_Wood_Dale,_Illinois,_Illinois	PostalZip	12784097	60191, Wood Dale, Illinois, Illinois		-87.98064	41.96491		Wood_Dale,_Illinois
60192,_Hoffman_Estates,_Illinois,_Illinois	PostalZip	12784098	60192, Hoffman Estates, Illinois, Illinois		-88.15088	42.07695		Hoffman_Estates,_Illinois
60193,_Schaumburg,_Illinois,_Illinois	PostalZip	12784099	60193, Schaumburg, Illinois, Illinois		-88.09287	42.01148		Schaumburg,_Illinois
60194,_Schaumburg,_Illinois,_Illinois	PostalZip	12784100	60194, Schaumburg, Illinois, Illinois		-88.10872	42.03326		Schaumburg,_Illinois
60195,_Schaumburg,_Illinois,_Illinois	PostalZip	12784101	60195, Schaumburg, Illinois, Illinois		-88.08456	42.0613		Schaumburg,_Illinois
60201,_Evanston,_Illinois,_Illinois	PostalZip	12784106	60201, Evanston, Illinois, Illinois		-87.69883	42.05675		Evanston,_Illinois
60202,_Evanston,_Illinois,_Illinois	PostalZip	12784107	60202, Evanston, Illinois, Illinois		-87.68926	42.03052		Evanston,_Illinois
60203,_Evanston,_Illinois,_Illinois	PostalZip	12784108	60203, Evanston, Illinois, Illinois		-87.71753	42.04916		Evanston,_Illinois
60301,_Oak_Park,_Illinois,_Illinois	PostalZip	12784112	60301, Oak Park, Illinois, Illinois		-87.79878	41.88866		Oak_Park,_Illinois
60302,_Oak_Park,_Illinois,_Illinois	PostalZip	12784113	60302, Oak Park, Illinois, Illinois		-87.78976	41.89473		Oak_Park,_Illinois
60304,_Oak_Park,_Illinois,_Illinois	PostalZip	12784115	60304, Oak Park, Illinois, Illinois		-87.78936	41.87253		Oak_Park,_Illinois
60305,_River_Forest,_Illinois,_Illinois	PostalZip	12784116	60305, River Forest, Illinois, Illinois		-87.81944	41.89488		River_Forest,_Illinois
60401,_Beecher,_Illinois,_Illinois	PostalZip	12784117	60401, Beecher, Illinois, Illinois		-87.61046	41.34393		Beecher,_Illinois
60402,_Berwyn,_Illinois,_Illinois	PostalZip	12784118	60402, Berwyn, Illinois, Illinois		-87.78788	41.83251		Berwyn,_Illinois
60406,_Blue_Island%E2%80%93Vermont_Street_station,_Illinois	PostalZip	12784119	60406, Blue Island%E2%80%93Vermont Street station, Illinois		-87.68086	41.65512		Blue_Island%E2%80%93Vermont_Street_station
60408,_Braidwood,_Illinois,_Illinois	PostalZip	12784121	60408, Braidwood, Illinois, Illinois		-88.21812	41.25284		Braidwood,_Illinois
60409,_Calumet_City,_Illinois,_Illinois	PostalZip	12784122	60409, Calumet City, Illinois, Illinois		-87.55166	41.61261		Calumet_City,_Illinois
60410,_Channahon,_Illinois,_Illinois	PostalZip	12784123	60410, Channahon, Illinois, Illinois		-88.21705	41.42858		Channahon,_Illinois
60411,_Chicago_Heights,_Illinois,_Illinois	PostalZip	12784124	60411, Chicago Heights, Illinois, Illinois		-87.59059	41.50891		Chicago_Heights,_Illinois
60415,_Chicago_Ridge,_Illinois,_Illinois	PostalZip	12784126	60415, Chicago Ridge, Illinois, Illinois		-87.77952	41.70332		Chicago_Ridge,_Illinois
60417,_Crete,_Illinois,_Illinois	PostalZip	12784128	60417, Crete, Illinois, Illinois		-87.5937	41.42988		Crete,_Illinois
60419,_Dolton,_Illinois,_Illinois	PostalZip	12784129	60419, Dolton, Illinois, Illinois		-87.59903	41.62902		Dolton,_Illinois
60422,_Flossmoor,_Illinois,_Illinois	PostalZip	12784132	60422, Flossmoor, Illinois, Illinois		-87.68634	41.5385		Flossmoor,_Illinois
60423,_Frankfort,_Illinois,_Illinois	PostalZip	12784133	60423, Frankfort, Illinois, Illinois		-87.83995	41.47838		Frankfort,_Illinois
60425,_Glenwood,_Illinois,_Illinois	PostalZip	12784135	60425, Glenwood, Illinois, Illinois		-87.608	41.54402		Glenwood,_Illinois
60426,_Harvey,_Illinois,_Illinois	PostalZip	12784136	60426, Harvey, Illinois, Illinois		-87.65744	41.60988		Harvey,_Illinois
60429,_Hazel_Crest,_Illinois,_Illinois	PostalZip	12784137	60429, Hazel Crest, Illinois, Illinois		-87.68107	41.57345		Hazel_Crest,_Illinois
60430,_Homewood,_Illinois,_Illinois	PostalZip	12784138	60430, Homewood, Illinois, Illinois		-87.66132	41.55858		Homewood,_Illinois
60431,_Joliet,_Illinois,_Illinois	PostalZip	12784139	60431, Joliet, Illinois, Illinois		-88.20489	41.53372		Joliet,_Illinois
60432,_Joliet,_Illinois,_Illinois	PostalZip	12784140	60432, Joliet, Illinois, Illinois		-88.03879	41.54161		Joliet,_Illinois
60433,_Joliet,_Illinois,_Illinois	PostalZip	12784141	60433, Joliet, Illinois, Illinois		-88.04558	41.49649		Joliet,_Illinois
60434,_Joliet,_Illinois,_Illinois	PostalZip	12784142	60434, Joliet, Illinois, Illinois		-88.08002	41.52695		Joliet,_Illinois
60435,_Joliet,_Illinois,_Illinois	PostalZip	12784143	60435, Joliet, Illinois, Illinois		-88.12915	41.54625		Joliet,_Illinois
60436,_Joliet,_Illinois,_Illinois	PostalZip	12784144	60436, Joliet, Illinois, Illinois		-88.12685	41.4838		Joliet,_Illinois
60438,_Lansing,_Illinois,_Illinois	PostalZip	12784146	60438, Lansing, Illinois, Illinois		-87.55036	41.56771		Lansing,_Illinois
60439,_Lemont,_Illinois,_Illinois	PostalZip	12784147	60439, Lemont, Illinois, Illinois		-87.97886	41.67655		Lemont,_Illinois
60440,_Bolingbrook,_Illinois,_Illinois	PostalZip	12784148	60440, Bolingbrook, Illinois, Illinois		-88.07411	41.70087		Bolingbrook,_Illinois
60441,_Lockport,_Illinois,_Illinois	PostalZip	12784149	60441, Lockport, Illinois, Illinois		-88.04363	41.59621		Lockport,_Illinois
60442,_Manhattan,_Illinois,_Illinois	PostalZip	12784150	60442, Manhattan, Illinois, Illinois		-87.95643	41.39288		Manhattan,_Illinois
60443,_Matteson,_Illinois,_Illinois	PostalZip	12784151	60443, Matteson, Illinois, Illinois		-87.75084	41.50765		Matteson,_Illinois
60445,_Midlothian,_Illinois,_Illinois	PostalZip	12784153	60445, Midlothian, Illinois, Illinois		-87.73969	41.62689		Midlothian,_Illinois
60446,_Romeoville,_Illinois,_Illinois	PostalZip	12784154	60446, Romeoville, Illinois, Illinois		-88.10021	41.63228		Romeoville,_Illinois
