id	type	woeId	label	wikiId	longitude	latitude	population	stateLabel	stateId	countryLabel	countryId
f5a18c480d77ea4b8e115b1202ceeef9	CountyAdminArea		Blekinge County	Blekinge_County	14.381104	56.24335	159367			Sweden	c8f4261f9f46e6465709e17ebea7a92b
a33d02894717b7b2b070335da050deef	StateAdminArea	2347053	Dalarna County	Dalarna_County	14.42072	61.06112	285724			Sweden	c8f4261f9f46e6465709e17ebea7a92b
d1ca7d0295053dade2b0487098b58625	StateAdminArea	2347048	Gotland County	Gotland_County	18.5943	57.4176	58464			Sweden	c8f4261f9f46e6465709e17ebea7a92b
44746eb2d0e989e4434e697405683776	StateAdminArea	2347046	Gävleborg County	G%C3%A4vleborg_County	15.98572	61.26614	285452			Sweden	c8f4261f9f46e6465709e17ebea7a92b
6e9c2db734794caa45852861cfc33c90	CountyAdminArea		Halland County	Halland_County	12.821045	56.716564	323729			Sweden	c8f4261f9f46e6465709e17ebea7a92b
e99b9cf628ba31f456b90cd6344d7237	StateAdminArea	2347050	Jämtland County	J%C3%A4mtland_County	14.48678	63.34128	129649			Sweden	c8f4261f9f46e6465709e17ebea7a92b
b61891da29d17cd1d50bfd8fcad95a03	StateAdminArea	2347051	Jönköping County	J%C3%B6nk%C3%B6ping_County	14.3716	57.5331	356291			Sweden	c8f4261f9f46e6465709e17ebea7a92b
ae87afc05864ac0953da8abdb92fec4a	StateAdminArea	2347052	Kalmar County	Kalmar_County	16.0704	57.2195	243219			Sweden	c8f4261f9f46e6465709e17ebea7a92b
efc979b94b7a23a008220808f5480f15	CountyAdminArea		Kronoberg County	Kronoberg_County	14.44	56.79	197040			Sweden	c8f4261f9f46e6465709e17ebea7a92b
e785013c7abdb3c1fb6a6a69e29d482e	CountyAdminArea		Norrbotten County	Norrbotten_County	18.500977	67.135826	251080			Sweden	c8f4261f9f46e6465709e17ebea7a92b
def104355419b7be90328c3985006a07	CountyAdminArea		Skåne County	Sk%C3%A5ne_County	13.441772	55.995308	1340415			Sweden	c8f4261f9f46e6465709e17ebea7a92b
4a8fa3eb8190a3ceeebe7e60a7f008a9	StateAdminArea	2347067	Stockholm County	Stockholm_County	18.1652	59.4739	2377081			Sweden	c8f4261f9f46e6465709e17ebea7a92b
ae4bdb05a5ce0409f03a498e6f106dc4	StateAdminArea	2347061	Södermanland County	S%C3%B6dermanland_County	16.62311	59.07015	290711			Sweden	c8f4261f9f46e6465709e17ebea7a92b
6450499a9e98341c292e63190ef5d347	StateAdminArea	2347062	Uppsala County	Uppsala_County	17.67251	60.02259	367483			Sweden	c8f4261f9f46e6465709e17ebea7a92b
9680da6b85bd43118be8f44a0365881a	StateAdminArea	2347063	Värmland County	V%C3%A4rmland_County	13.08352	59.89025	279999			Sweden	c8f4261f9f46e6465709e17ebea7a92b
12ff8b811f061eb88c8addbd0e2840fd	StateAdminArea	2347064	Västerbotten County	V%C3%A4sterbotten_County	17.97064	64.876	268067			Sweden	c8f4261f9f46e6465709e17ebea7a92b
9a2c72504841c23d9430c097257b1190	StateAdminArea	2347065	Västernorrland County	V%C3%A4sternorrland_County	17.03351	63.08226	246082			Sweden	c8f4261f9f46e6465709e17ebea7a92b
0e72dfbba2658ac8aaf34ac8382f1951	StateAdminArea	2347066	Västmanland County	V%C3%A4stmanland_County	16.39874	59.7505	270535			Sweden	c8f4261f9f46e6465709e17ebea7a92b
7c38b06f8d35331c9f03ceae8deea4bd	StateAdminArea	20070562	Västra Götaland County	V%C3%A4stra_G%C3%B6taland_County	12.94623	58.20419	1725881			Sweden	c8f4261f9f46e6465709e17ebea7a92b
b5d71a5f3fcf9adef38f1ab3db4e1190	StateAdminArea	2347058	Örebro County	%C3%96rebro_County	15.0423	59.3782	297997			Sweden	c8f4261f9f46e6465709e17ebea7a92b
a168e5860b7dcf26280b4b79606adcae	CountyAdminArea		Östergötland County	%C3%96sterg%C3%B6tland_County	15.238037	58.528126	456550			Sweden	c8f4261f9f46e6465709e17ebea7a92b
c48e3bcc59da6e7a1cff31dd52f46c8a	CountyAdminArea	12589800	Abbeville County, South Carolina	Abbeville_County,_South_Carolina	-82.49045	34.24865	24527	South Carolina	aeeb87d118446317ff4f4d5e8d19283f	United States	09d4bca31e2fd8b0f57f79f85ed42bd8
c22e8aefd0015bcf4e8fd333d1ad4f27	StateAdminArea	7153350	Abruzzo	Abruzzo	13.9009	42.2888	1307919			Italy	1007e1b7f894dfbf72a0eaa80f3bc57e
1f03d1f04097bcb43ff0b3dd50dde21c	CountyAdminArea	12588596	Acadia Parish, Louisiana	Acadia_Parish,_Louisiana	-92.38697	30.26516	62045	Louisiana	39da6b7e3479522718668deaf7e6f304	United States	09d4bca31e2fd8b0f57f79f85ed42bd8
132fe4dccc249a965095e128ce3b1748	CountyAdminArea	12590304	Accomack County, Virginia	Accomack_County,_Virginia	-75.65912	37.74323	32316	Virginia	c8b287075ce4f11c834d2a0ada967ddc	United States	09d4bca31e2fd8b0f57f79f85ed42bd8
5323a85a13f09b6b2308f6b84e7d185d	CountyAdminArea	12588034	Ada County, Idaho	Ada_County,_Idaho	-116.24447	43.45983	481587	Idaho	47b231eae4bf87fa405e34eb9273b741	United States	09d4bca31e2fd8b0f57f79f85ed42bd8
677bb1b9b87bb19ba9c811a66a105fb4	CountyAdminArea	12588272	Adair County, Iowa	Adair_County,_Iowa	-94.47101	41.33064	7152	Iowa	0daaf4a9abe3920c453a7f1f82a9bb19	United States	09d4bca31e2fd8b0f57f79f85ed42bd8
ad9330b8166c6b199f773a334736d932	CountyAdminArea	12588476	Adair County, Kentucky	Adair_County,_Kentucky	-85.2851	37.11861	19202	Kentucky	980ceec1dba2d36c2ba867f683b47838	United States	09d4bca31e2fd8b0f57f79f85ed42bd8
f078190b53918b138fc190143cd2cf0b	CountyAdminArea	12588966	Adair County, Missouri	Adair_County,_Missouri	-92.60072	40.19177	25343	Missouri	06fa309b609b7c8f7c39a88abe2d507c	United States	09d4bca31e2fd8b0f57f79f85ed42bd8
548cbee3b386cc3b267421d2ee9312fd	CountyAdminArea	12589615	Adair County, Oklahoma	Adair_County,_Oklahoma	-94.6402	35.89994	22194	Oklahoma	92aec0ba411203aa3a57aec94b108ed6	United States	09d4bca31e2fd8b0f57f79f85ed42bd8
5988ac0efe7bb9631a735a54e6de2514	CountyAdminArea	12587728	Adams County, Colorado	Adams_County,_Colorado	-104.37974	39.86963	517421	Colorado	15e49475e42539feed93fc5cce25d3cb	United States	09d4bca31e2fd8b0f57f79f85ed42bd8
53800bdfefb5d9e15592a926306b789c	CountyAdminArea	12588035	Adams County, Idaho	Adams_County,_Idaho	-116.4943	44.85638	4294	Idaho	47b231eae4bf87fa405e34eb9273b741	United States	09d4bca31e2fd8b0f57f79f85ed42bd8
f6552b12a425bd48f3cdb7bacf2b5872	CountyAdminArea	12588078	Adams County, Illinois	Adams_County,_Illinois	-91.21246	39.97857	65435	Illinois	66c2b329479ee151b4c6b257c0b7a9b7	United States	09d4bca31e2fd8b0f57f79f85ed42bd8
7e1d691dcbf2c0815818a80c9826ec95	CountyAdminArea	12588180	Adams County, Indiana	Adams_County,_Indiana	-84.93804	40.74546	35777	Indiana	c5376d00573c5858adf7ed894d0491b9	United States	09d4bca31e2fd8b0f57f79f85ed42bd8
e95f527a7078f9eb0ee6f71e0f282220	CountyAdminArea	12588273	Adams County, Iowa	Adams_County,_Iowa	-94.69948	41.02915	3602	Iowa	0daaf4a9abe3920c453a7f1f82a9bb19	United States	09d4bca31e2fd8b0f57f79f85ed42bd8
525abe4300bb40fc4f7cbad59c32c775	CountyAdminArea	12588884	Adams County, Mississippi	Adams_County,_Mississippi	-91.40195	31.47064	30693	Mississippi	14c5492ce2fe855f408481fdbd13f7a6	United States	09d4bca31e2fd8b0f57f79f85ed42bd8
919af763c34073c56e4addff2123c91a	CountyAdminArea	12589138	Adams County, Nebraska	Adams_County,_Nebraska	-98.50094	40.5245	31363	Nebraska	20639b767478006218447b27e4b853cb	United States	09d4bca31e2fd8b0f57f79f85ed42bd8
314053e384f9700f41ac11db0d146859	CountyAdminArea	12589474	Adams County, North Dakota	Adams_County,_North_Dakota	-102.49687	46.11381	2216	North Dakota	3971735868c1886348955beb9c7d72bd	United States	09d4bca31e2fd8b0f57f79f85ed42bd8
80116364883067b5b617728e22d0ea81	CountyAdminArea	12589527	Adams County, Ohio	Adams_County,_Ohio	-83.4866	38.82597	27698	Ohio	4ec96adb9cc39333f3d2024b28f2503f	United States	09d4bca31e2fd8b0f57f79f85ed42bd8
0096d4be36c5fc240afdb8fd3eec8b56	CountyAdminArea	12589728	Adams County, Pennsylvania	Adams_County,_Pennsylvania	-77.21347	39.89482	103009	Pennsylvania	9ac31dfb3a2f5b994f4009eb0a3c0949	United States	09d4bca31e2fd8b0f57f79f85ed42bd8
de499b30f0473b290f636829078c6558	CountyAdminArea	12590440	Adams County, Washington	Adams_County,_Washington	-118.66444	46.99769	19983	Washington	11d9591c9feee10969173c347e551a9a	United States	09d4bca31e2fd8b0f57f79f85ed42bd8
6ff08aafdfc96b2b4b2527c7647c0490	CountyAdminArea	12590534	Adams County, Wisconsin	Adams_County,_Wisconsin	-89.81296	43.94518	20220	Wisconsin	5aeb407b7ca7f3fe0dc50003b1e0712f	United States	09d4bca31e2fd8b0f57f79f85ed42bd8
bbb14e987f8cdc11aff683e4143a8216	CountyAdminArea	12590290	Addison County, Vermont	Addison_County,_Vermont	-73.08976	44.02863	36777	Vermont	de30bd840230da1493819f803aff6e9e	United States	09d4bca31e2fd8b0f57f79f85ed42bd8
6e9767f4f15357401b148b9a8ced14ef	Country	23424739	Afghanistan	Afghanistan	67.67894	33.93045	32225560				
12315156c776e2d8aca490f653d191d3	CountyAdminArea	12589801	Aiken County, South Carolina	Aiken_County,_South_Carolina	-81.59958	33.53742	170872	South Carolina	aeeb87d118446317ff4f4d5e8d19283f	United States	09d4bca31e2fd8b0f57f79f85ed42bd8
dec356082e90295d09b5ba1a7c744009	CountyAdminArea	12588797	Aitkin County, Minnesota	Aitkin_County,_Minnesota	-93.4329	46.59217	15886	Minnesota	45009b4a16ef03ba8bb5b15665ef4469	United States	09d4bca31e2fd8b0f57f79f85ed42bd8
213fe69502445ed67ae8b99d22838802	StateAdminArea	2347559	Alabama	Alabama	-86.83158	32.78488	4903185			United States	09d4bca31e2fd8b0f57f79f85ed42bd8
ab65afeb26d495bfad43d5c92c2364ff	CountyAdminArea	12587803	Alachua County, Florida	Alachua_County,_Florida	-82.35396	29.68115	269043	Florida	eeaca0ed2f6a35370c77de30792debb8	United States	09d4bca31e2fd8b0f57f79f85ed42bd8
e9b268aaa23d007407194708bb54055a	CountyAdminArea	12589374	Alamance County, North Carolina	Alamance_County,_North_Carolina	-79.38954	36.04665	169509	North Carolina	5c520b852c5d7c99a71f1635ae84e1d2	United States	09d4bca31e2fd8b0f57f79f85ed42bd8
6a2ce411226704bcb7e73995b8b6066a	CountyAdminArea	12587670	Alameda County, California	Alameda_County,_California	-121.90585	37.6797	1671329	California	356779a9a1696714480f57fa3fb66d4c	United States	09d4bca31e2fd8b0f57f79f85ed42bd8
ab65082077765a1fb9b575f1fd14e851	CountyAdminArea	12587729	Alamosa County, Colorado	Alamosa_County,_Colorado	-105.74602	37.5542	16233	Colorado	15e49475e42539feed93fc5cce25d3cb	United States	09d4bca31e2fd8b0f57f79f85ed42bd8
e15997c74a71c5d9263df6f7a21bc191	StateAdminArea	2347560	Alaska	Alaska	-149.106	63.0365	731545			United States	09d4bca31e2fd8b0f57f79f85ed42bd8
c420ddff824a5c0eec70dd23d62496bc	Country	23424742	Albania	Albania	20.17001	41.15265	3079100				
d3cfc7f62df0804db23a671001d43264	CountyAdminArea	12589312	Albany County, New York	Albany_County,_New_York	-73.97103	42.61467	305506	New York (state)	fede9f03ea10983a84201b04a1453558	United States	09d4bca31e2fd8b0f57f79f85ed42bd8
d97c072554cc4cf8178239893469e422	CountyAdminArea	12590606	Albany County, Wyoming	Albany_County,_Wyoming	-105.79748	41.71486	38880	Wyoming	823ee6401883db6f9e5865f51c77d97c	United States	09d4bca31e2fd8b0f57f79f85ed42bd8
eb017deb2b8d8a650d3f905efd30fc63	CountyAdminArea	12590305	Albemarle County, Virginia	Albemarle_County,_Virginia	-78.52358	38.00034	109330	Virginia	c8b287075ce4f11c834d2a0ada967ddc	United States	09d4bca31e2fd8b0f57f79f85ed42bd8
d7a5be172f77453b4400144c8b66df1a	StateAdminArea	2344915	Alberta	Alberta	-114.99993	54.49857	4067175			Canada	445d337b5cd5de476f99333df6b0c2a7
5bb3d390aee7bf4e26c63cd509e1d267	CountyAdminArea	12588714	Alcona County, Michigan	Alcona_County,_Michigan	-83.57952	44.68418	10405	Michigan	8eadc5d3e1f1919c527b6d865e226a88	United States	09d4bca31e2fd8b0f57f79f85ed42bd8
159ce3123ba2ffdfd4915158a06cc251	CountyAdminArea	12588885	Alcorn County, Mississippi	Alcorn_County,_Mississippi	-88.59359	34.87593	36953	Mississippi	14c5492ce2fe855f408481fdbd13f7a6	United States	09d4bca31e2fd8b0f57f79f85ed42bd8
b2b5ce5f6090a3f05766912c39778348	CountyAdminArea	12587554	Aleutians East Borough, Alaska	Aleutians_East_Borough,_Alaska	-162.4062	55.19313	3337	Alaska	e15997c74a71c5d9263df6f7a21bc191	United States	09d4bca31e2fd8b0f57f79f85ed42bd8
0698797aaad7f3a4cc83407ab292a26c	CountyAdminArea	12587555	Aleutians West Census Area, Alaska	Aleutians_West_Census_Area,_Alaska	-167.031	53.6252	5634	Alaska	e15997c74a71c5d9263df6f7a21bc191	United States	09d4bca31e2fd8b0f57f79f85ed42bd8
92dfcdb336717e6724f621bb17c33f6a	CountyAdminArea	12588079	Alexander County, Illinois	Alexander_County,_Illinois	-89.32691	37.15286	5761	Illinois	66c2b329479ee151b4c6b257c0b7a9b7	United States	09d4bca31e2fd8b0f57f79f85ed42bd8
5de5800a9623a0c3282be1b750c59380	CountyAdminArea	12589375	Alexander County, North Carolina	Alexander_County,_North_Carolina	-81.17377	35.91243	37497	North Carolina	5c520b852c5d7c99a71f1635ae84e1d2	United States	09d4bca31e2fd8b0f57f79f85ed42bd8
fe7e731218c2ecf85be2e426d459114f	CityTown	12590306	Alexandria, Virginia	Alexandria,_Virginia	-77.09015	38.81841	159428	Virginia	c8b287075ce4f11c834d2a0ada967ddc	United States	09d4bca31e2fd8b0f57f79f85ed42bd8
00a6969a3eba25e5c9e0766f5c8ea028	CountyAdminArea	12589616	Alfalfa County, Oklahoma	Alfalfa_County,_Oklahoma	-98.32459	36.731	5702	Oklahoma	92aec0ba411203aa3a57aec94b108ed6	United States	09d4bca31e2fd8b0f57f79f85ed42bd8
5970d8847d950bc5b022af17577ced34	CountyAdminArea	12588715	Alger County, Michigan	Alger_County,_Michigan	-86.49035	46.42458	9108	Michigan	8eadc5d3e1f1919c527b6d865e226a88	United States	09d4bca31e2fd8b0f57f79f85ed42bd8
575b9408b6daa2ddcefbcf6d81c9b4c9	Country	23424740	Algeria	Algeria	1.65284	28.02688	43000000				
9dfc0f03f2ba88d0c8b5740d27c3cefd	CountyAdminArea	12588274	Allamakee County, Iowa	Allamakee_County,_Iowa	-91.33435	43.29046	13687	Iowa	0daaf4a9abe3920c453a7f1f82a9bb19	United States	09d4bca31e2fd8b0f57f79f85ed42bd8
c6ba1f0b1a07d9bb2258355e6faeca87	CountyAdminArea	12588716	Allegan County, Michigan	Allegan_County,_Michigan	-85.90841	42.59387	118081	Michigan	8eadc5d3e1f1919c527b6d865e226a88	United States	09d4bca31e2fd8b0f57f79f85ed42bd8
e3447ce6ed79bb36844d4b6f166689b9	CountyAdminArea	12588676	Allegany County, Maryland	Allegany_County,_Maryland	-78.69003	39.58089	70416	Maryland	11ea71f253acf02a2d126a0901e765a7	United States	09d4bca31e2fd8b0f57f79f85ed42bd8
c0b1cfe3a1145b7ec8ac781d0b6155e4	CountyAdminArea	12589313	Allegany County, New York	Allegany_County,_New_York	-78.01634	42.25997	46091	New York (state)	fede9f03ea10983a84201b04a1453558	United States	09d4bca31e2fd8b0f57f79f85ed42bd8
cf0702a07e2c884842fccc4ddd3930b4	CountyAdminArea	12589376	Alleghany County, North Carolina	Alleghany_County,_North_Carolina	-81.12743	36.47046	11137	North Carolina	5c520b852c5d7c99a71f1635ae84e1d2	United States	09d4bca31e2fd8b0f57f79f85ed42bd8
7a10d32b81514c8e11ad7aea99d8eda8	CountyAdminArea	12590307	Alleghany County, Virginia	Alleghany_County,_Virginia	-79.95635	37.77996	14860	Virginia	c8b287075ce4f11c834d2a0ada967ddc	United States	09d4bca31e2fd8b0f57f79f85ed42bd8
f4f63af07c687356306d6f0ba0ea8454	CountyAdminArea	12589729	Allegheny County, Pennsylvania	Allegheny_County,_Pennsylvania	-80.02488	40.43444	1216045	Pennsylvania	9ac31dfb3a2f5b994f4009eb0a3c0949	United States	09d4bca31e2fd8b0f57f79f85ed42bd8
7d2b08ee9a9c532d175d292c72644709	CountyAdminArea	12588181	Allen County, Indiana	Allen_County,_Indiana	-85.07063	41.09369	379299	Indiana	c5376d00573c5858adf7ed894d0491b9	United States	09d4bca31e2fd8b0f57f79f85ed42bd8
4fdff7c580dfe133020f1539e2122ce0	CountyAdminArea	12588371	Allen County, Kansas	Allen_County,_Kansas	-95.3017	37.8855	12369	Kansas	7c0e2b92f76ed5847aa48a3a1e70ae7d	United States	09d4bca31e2fd8b0f57f79f85ed42bd8
45d91d4c8cb2b204ca85bab30ad41fa7	CountyAdminArea	12588477	Allen County, Kentucky	Allen_County,_Kentucky	-86.18398	36.78211	21315	Kentucky	980ceec1dba2d36c2ba867f683b47838	United States	09d4bca31e2fd8b0f57f79f85ed42bd8
945b9e360dedc630c0943613af45aeba	CountyAdminArea	12589528	Allen County, Ohio	Allen_County,_Ohio	-84.13861	40.78175	102351	Ohio	4ec96adb9cc39333f3d2024b28f2503f	United States	09d4bca31e2fd8b0f57f79f85ed42bd8
cca88bffc6949d21028fbdfc57053e31	CountyAdminArea	12588597	Allen Parish, Louisiana	Allen_Parish,_Louisiana	-92.85709	30.66124	25627	Louisiana	39da6b7e3479522718668deaf7e6f304	United States	09d4bca31e2fd8b0f57f79f85ed42bd8
6ec30364e99b982e7cc5efaf4a820606	CountyAdminArea	12589802	Allendale County, South Carolina	Allendale_County,_South_Carolina	-81.34794	32.95154	8688	South Carolina	aeeb87d118446317ff4f4d5e8d19283f	United States	09d4bca31e2fd8b0f57f79f85ed42bd8
87568fa34926590853c3509f3f46f062	CountyAdminArea	12588717	Alpena County, Michigan	Alpena_County,_Michigan	-83.57528	45.03184	28405	Michigan	8eadc5d3e1f1919c527b6d865e226a88	United States	09d4bca31e2fd8b0f57f79f85ed42bd8
63713d882d0910cadc205f01f3a9e562	CountyAdminArea	12587671	Alpine County, California	Alpine_County,_California	-119.80731	38.63066	1129	California	356779a9a1696714480f57fa3fb66d4c	United States	09d4bca31e2fd8b0f57f79f85ed42bd8
cbd1e9dcc37cbc62e35cf5d3d949c53b	CountyAdminArea	12587672	Amador County, California	Amador_County,_California	-120.55011	38.4617	39752	California	356779a9a1696714480f57fa3fb66d4c	United States	09d4bca31e2fd8b0f57f79f85ed42bd8
000b33d227f78349c2426f8eab0686df	CountyAdminArea	12590308	Amelia County, Virginia	Amelia_County,_Virginia	-77.9497	37.34515	13145	Virginia	c8b287075ce4f11c834d2a0ada967ddc	United States	09d4bca31e2fd8b0f57f79f85ed42bd8
98b45a098953b010a419bdc69d58773d	StateAdminArea	23424746	American Samoa	American_Samoa	-170.70238	-14.30996	60100				
ac9e4c768d9ffde6a6af352d115310a5	CountyAdminArea	12590309	Amherst County, Virginia	Amherst_County,_Virginia	-79.15286	37.6009	31605	Virginia	c8b287075ce4f11c834d2a0ada967ddc	United States	09d4bca31e2fd8b0f57f79f85ed42bd8
bc264075712cfcf76d465452d1d3cf9c	CountyAdminArea	12588886	Amite County, Mississippi	Amite_County,_Mississippi	-90.82151	31.17437	12297	Mississippi	14c5492ce2fe855f408481fdbd13f7a6	United States	09d4bca31e2fd8b0f57f79f85ed42bd8
36ac3653e0c3127b19bc0324d5ae3c26	CityTown	12587556	Anchorage, Alaska	Anchorage,_Alaska	-149.4403	61.14348	288000	Alaska	e15997c74a71c5d9263df6f7a21bc191	United States	09d4bca31e2fd8b0f57f79f85ed42bd8
49a1e8cf277bb1f58536e45c10c10020	StateAdminArea	12578029	Andalusia	Andalusia	-4.57493	37.36478	8388107			Spain	907eba32d950bfab68227fd7ea22999b
c637be1cf835c710a89f5c030c9252cb	StateAdminArea	2345739	Andaman and Nicobar Islands	Andaman_and_Nicobar_Islands	92.82391	12.62794	380520			India	7d31e0da1ab99fe8b08a22118e2f402b
32ed843f388d88e3aeaddaad45ee1296	CountyAdminArea	12588372	Anderson County, Kansas	Anderson_County,_Kansas	-95.29194	38.21401	7858	Kansas	7c0e2b92f76ed5847aa48a3a1e70ae7d	United States	09d4bca31e2fd8b0f57f79f85ed42bd8
c9ab38f420c69f2e1e2a72ab14b77423	CountyAdminArea	12588478	Anderson County, Kentucky	Anderson_County,_Kentucky	-84.98307	38.00691	22747	Kentucky	980ceec1dba2d36c2ba867f683b47838	United States	09d4bca31e2fd8b0f57f79f85ed42bd8
f1a41fcf47e0741cbf5abefbfc0ef5f6	CountyAdminArea	12589803	Anderson County, South Carolina	Anderson_County,_South_Carolina	-82.65263	34.51396	202558	South Carolina	aeeb87d118446317ff4f4d5e8d19283f	United States	09d4bca31e2fd8b0f57f79f85ed42bd8
23f3185e0f201c8c6033a52c9305d55b	CountyAdminArea	12589912	Anderson County, Tennessee	Anderson_County,_Tennessee	-84.1959	36.10551	76978	Tennessee	a5c53b081bf565526eb3779db999becf	United States	09d4bca31e2fd8b0f57f79f85ed42bd8
2db0be617ef744c56bb13b77c05b636a	CountyAdminArea	12590007	Anderson County, Texas	Anderson_County,_Texas	-95.66181	31.79403	57735	Texas	86871c416a7dbed7e5cc229d143d8d82	United States	09d4bca31e2fd8b0f57f79f85ed42bd8
037960597072204e989f671623e600aa	StateAdminArea	2345740	Andhra Pradesh	Andhra_Pradesh	80.7636	16.271	75727541			India	7d31e0da1ab99fe8b08a22118e2f402b
68746a7280b143cfc01f967610d3e86d	Country	23424744	Andorra	Andorra	1.60021	42.54237	65971				
067f7b4071082b6e44a5b700324002be	CountyAdminArea	12588967	Andrew County, Missouri	Andrew_County,_Missouri	-94.83173	39.97486	17712	Missouri	06fa309b609b7c8f7c39a88abe2d507c	United States	09d4bca31e2fd8b0f57f79f85ed42bd8
8289a6046c64262b64a5e950d1886947	CountyAdminArea	12590008	Andrews County, Texas	Andrews_County,_Texas	-102.63785	32.30499	18705	Texas	86871c416a7dbed7e5cc229d143d8d82	United States	09d4bca31e2fd8b0f57f79f85ed42bd8
78eb133d67c9a96ef30d85dda8cb542e	CountyAdminArea	12588660	Androscoggin County, Maine	Androscoggin_County,_Maine	-70.23958	44.19707	108277	Maine	41695c8c512c53044b7b787368687ac8	United States	09d4bca31e2fd8b0f57f79f85ed42bd8
ad69d1c8c414554b478b7185dcb28e65	CountyAdminArea	12590009	Angelina County, Texas	Angelina_County,_Texas	-94.56762	31.27649	86715	Texas	86871c416a7dbed7e5cc229d143d8d82	United States	09d4bca31e2fd8b0f57f79f85ed42bd8
232bf11cb81bcdb269f76a08fde8b947	Country	23424745	Angola	Angola	17.90721	-11.94184	13036300				
cedfc05affe8143cc552076e77407863	Country	23424751	Anguilla	Anguilla	-63.07213	18.22512	12300				
273793bf6cc87833e500719164b897be	CountyAdminArea	12588677	Anne Arundel County, Maryland	Anne_Arundel_County,_Maryland	-76.63451	38.88823	579234	Maryland	11ea71f253acf02a2d126a0901e765a7	United States	09d4bca31e2fd8b0f57f79f85ed42bd8
ff85117d795f479bc094a98a4c768fd1	CountyAdminArea	12588798	Anoka County, Minnesota	Anoka_County,_Minnesota	-93.26563	45.22501	356921	Minnesota	45009b4a16ef03ba8bb5b15665ef4469	United States	09d4bca31e2fd8b0f57f79f85ed42bd8
1831f7ec8f4d137add9a92545cabf634	CountyAdminArea	12589377	Anson County, North Carolina	Anson_County,_North_Carolina	-80.08448	35.00893	24446	North Carolina	5c520b852c5d7c99a71f1635ae84e1d2	United States	09d4bca31e2fd8b0f57f79f85ed42bd8
5c302a38b6694cf199005d8ddff2fa39	CountyAdminArea	12589139	Antelope County, Nebraska	Antelope_County,_Nebraska	-98.067	42.17632	6298	Nebraska	20639b767478006218447b27e4b853cb	United States	09d4bca31e2fd8b0f57f79f85ed42bd8
79f96d084a36450dd126ddb451f53c90	Country	23424737	Antigua and Barbuda	Antigua_and_Barbuda	-61.78942	17.08602	70100				
bcff8ce79caeec8c56ee42633d4c9d77	CityTown	349862	Antofagasta	Antofagasta	-70.39276	-23.63125	228408	Antofagasta Region	a9095de33967647fb684edc8a148291f	Chile	2e6507f70a9cc26fb50f5fd82a83c7ef
768e7f9d615346241a85749a26025ade	CountyAdminArea	12588718	Antrim County, Michigan	Antrim_County,_Michigan	-85.14545	45.01042	23324	Michigan	8eadc5d3e1f1919c527b6d865e226a88	United States	09d4bca31e2fd8b0f57f79f85ed42bd8
58514bdf2478891d0fe67a830a684d0f	StateAdminArea	7153348	Aosta Valley	Aosta_Valley	7.37038	45.7275	126933			Italy	1007e1b7f894dfbf72a0eaa80f3bc57e
be3dc299d3d698b4e6b711c4967a50f4	CountyAdminArea	12587580	Apache County, Arizona	Apache_County,_Arizona	-109.52289	35.23746	71887	Arizona	3fe5003edc0cb6c83962dbd74d35dd50	United States	09d4bca31e2fd8b0f57f79f85ed42bd8
74a508ccb3f4959ad03507e9487e5b49	CountyAdminArea	12588275	Appanoose County, Iowa	Appanoose_County,_Iowa	-92.86777	40.74138	12426	Iowa	0daaf4a9abe3920c453a7f1f82a9bb19	United States	09d4bca31e2fd8b0f57f79f85ed42bd8
fbf365be5080e1b1a9fdc781fe25605f	CountyAdminArea	12587870	Appling County, Georgia	Appling_County,_Georgia	-82.2992	31.71765	18386	Georgia	7f3097563d468719d72c6df98a69f6de	United States	09d4bca31e2fd8b0f57f79f85ed42bd8
9d81fb58acf8bfaeb629d58aa4317dbb	CountyAdminArea	12590310	Appomattox County, Virginia	Appomattox_County,_Virginia	-78.86704	37.37723	15911	Virginia	c8b287075ce4f11c834d2a0ada967ddc	United States	09d4bca31e2fd8b0f57f79f85ed42bd8
c07f43af3f7ed5ff2f4e2a4fce92897b	StateAdminArea	7153342	Apulia	Apulia	16.727	40.8699	4063888			Italy	1007e1b7f894dfbf72a0eaa80f3bc57e
c2afadec4da6fe19d9f46a6df7502c3f	StateAdminArea	12578030	Aragon	Aragon	-0.7017	41.38597	1308563			Spain	907eba32d950bfab68227fd7ea22999b
df798a7dd54f65aba76414e5320602ec	CountyAdminArea	12590010	Aransas County, Texas	Aransas_County,_Texas	-97.02557	28.11013	23510	Texas	86871c416a7dbed7e5cc229d143d8d82	United States	09d4bca31e2fd8b0f57f79f85ed42bd8
24d144e1e0ae4ae76711ccb4efd721f7	CountyAdminArea	12587730	Arapahoe County, Colorado	Arapahoe_County,_Colorado	-104.3817	39.6521	656590	Colorado	15e49475e42539feed93fc5cce25d3cb	United States	09d4bca31e2fd8b0f57f79f85ed42bd8
fc5cb409e92ad47c4aecc3a38dad37e6	CountyAdminArea	12590011	Archer County, Texas	Archer_County,_Texas	-98.68741	33.61566	8553	Texas	86871c416a7dbed7e5cc229d143d8d82	United States	09d4bca31e2fd8b0f57f79f85ed42bd8
030e8424fc8ebed60f37f87599ee6c71	CountyAdminArea	12587731	Archuleta County, Colorado	Archuleta_County,_Colorado	-106.97961	37.20771	14029	Colorado	15e49475e42539feed93fc5cce25d3cb	United States	09d4bca31e2fd8b0f57f79f85ed42bd8
c3ba8cd84414059417842b7b8980baee	CountyAdminArea	12588719	Arenac County, Michigan	Arenac_County,_Michigan	-83.86536	44.03699	14883	Michigan	8eadc5d3e1f1919c527b6d865e226a88	United States	09d4bca31e2fd8b0f57f79f85ed42bd8
3536be57ce0713954e454ae6c53ec023	Country	23424747	Argentina	Argentina	-63.5848	-37.0907	44938712				
00d864f2bc91e07edb48b7e3b4b2446e	StateAdminArea	56043702	Arica y Parinacota Region	Arica_y_Parinacota_Region	-69.6417	-18.36454	428594			Chile	2e6507f70a9cc26fb50f5fd82a83c7ef
3fe5003edc0cb6c83962dbd74d35dd50	StateAdminArea	2347561	Arizona	Arizona	-111.66473	34.29302	7278717			United States	09d4bca31e2fd8b0f57f79f85ed42bd8
46aaf459104e9ce5d45eaa017ac349c2	StateAdminArea	2347562	Arkansas	Arkansas	-92.43864	34.89978	3017804			United States	09d4bca31e2fd8b0f57f79f85ed42bd8
fabd3ebefc71164fe401d370f29840ee	CountyAdminArea	12587595	Arkansas County, Arkansas	Arkansas_County,_Arkansas	-91.38188	34.24459	17486	Arkansas	46aaf459104e9ce5d45eaa017ac349c2	United States	09d4bca31e2fd8b0f57f79f85ed42bd8
922af041623e179a33028b049dd3e74a	CountyAdminArea	12590311	Arlington County, Virginia	Arlington_County,_Virginia	-77.10219	38.88091	236842	Virginia	c8b287075ce4f11c834d2a0ada967ddc	United States	09d4bca31e2fd8b0f57f79f85ed42bd8
a00c273f0f497484093fa94865cf5ca5	Country	23424743	Armenia	Armenia	45.03989	40.06617	3912600				
0bb4960cb52c7064830fc878630fa8ad	CountyAdminArea	12589730	Armstrong County, Pennsylvania	Armstrong_County,_Pennsylvania	-79.45153	40.84766	64735	Pennsylvania	9ac31dfb3a2f5b994f4009eb0a3c0949	United States	09d4bca31e2fd8b0f57f79f85ed42bd8
51da3a8c6b2ca562d8a9248af1b9372b	CountyAdminArea	12590012	Armstrong County, Texas	Armstrong_County,_Texas	-101.35765	34.96575	1887	Texas	86871c416a7dbed7e5cc229d143d8d82	United States	09d4bca31e2fd8b0f57f79f85ed42bd8
eb042ba9e1928f6156cda8134ee541a6	CountyAdminArea	12588661	Aroostook County, Maine	Aroostook_County,_Maine	-68.30376	46.51636	67055	Maine	41695c8c512c53044b7b787368687ac8	United States	09d4bca31e2fd8b0f57f79f85ed42bd8
03d57ea2cee7dc1df49229283e738686	CountyAdminArea	12589140	Arthur County, Nebraska	Arthur_County,_Nebraska	-101.69586	41.56905	463	Nebraska	20639b767478006218447b27e4b853cb	United States	09d4bca31e2fd8b0f57f79f85ed42bd8
4893b64051cf425047ddd8606dae25f4	Country	23424736	Aruba	Aruba	-69.96399	12.51835	69200				
3e975ed48bcad18f8aaf761abb67d48b	StateAdminArea	2345763	Arunachal Pradesh	Arunachal_Pradesh	94.48517	28.04432	1382611			India	7d31e0da1ab99fe8b08a22118e2f402b
a7ed0def0a83106ec401d80b97292453	CountyAdminArea	12588598	Ascension Parish, Louisiana	Ascension_Parish,_Louisiana	-90.85031	30.2048	126604	Louisiana	39da6b7e3479522718668deaf7e6f304	United States	09d4bca31e2fd8b0f57f79f85ed42bd8
f65804afc0f9788abedefa3f1c45e733	CountyAdminArea	12589378	Ashe County, North Carolina	Ashe_County,_North_Carolina	-81.49292	36.4143	27203	North Carolina	5c520b852c5d7c99a71f1635ae84e1d2	United States	09d4bca31e2fd8b0f57f79f85ed42bd8
125698f054bc88c6f70a84408b6ba206	CountyAdminArea	12589529	Ashland County, Ohio	Ashland_County,_Ohio	-82.28093	40.81027	53484	Ohio	4ec96adb9cc39333f3d2024b28f2503f	United States	09d4bca31e2fd8b0f57f79f85ed42bd8
e4024e279a3af58762d32ab52627f8d7	CountyAdminArea	12590535	Ashland County, Wisconsin	Ashland_County,_Wisconsin	-90.61379	46.34384	15562	Wisconsin	5aeb407b7ca7f3fe0dc50003b1e0712f	United States	09d4bca31e2fd8b0f57f79f85ed42bd8
78602ea1398656c9cd33204db14e9494	CountyAdminArea	12587596	Ashley County, Arkansas	Ashley_County,_Arkansas	-91.80056	33.2023	19657	Arkansas	46aaf459104e9ce5d45eaa017ac349c2	United States	09d4bca31e2fd8b0f57f79f85ed42bd8
72c1bbbff78e8ba9c3f1debf30d92de0	CountyAdminArea	12589530	Ashtabula County, Ohio	Ashtabula_County,_Ohio	-80.76123	41.7379	97241	Ohio	4ec96adb9cc39333f3d2024b28f2503f	United States	09d4bca31e2fd8b0f57f79f85ed42bd8
eef16a3ead096d19a45f8319abfe315f	CountyAdminArea	12590441	Asotin County, Washington	Asotin_County,_Washington	-117.1981	46.22904	22582	Washington	11d9591c9feee10969173c347e551a9a	United States	09d4bca31e2fd8b0f57f79f85ed42bd8
44e0325f3e4f2272ae44a4a675b527e6	StateAdminArea	2345741	Assam	Assam	92.85448	26.05573	31169272			India	7d31e0da1ab99fe8b08a22118e2f402b
ce3e867f77bbba85dc5df5b3c8d539d0	CountyAdminArea	12588599	Assumption Parish, Louisiana	Assumption_Parish,_Louisiana	-91.07265	29.85366	21891	Louisiana	39da6b7e3479522718668deaf7e6f304	United States	09d4bca31e2fd8b0f57f79f85ed42bd8
8d0bf5abf5750f86ec01a9baee95ee3a	CountyAdminArea	23388417	Asturias	Asturias	-5.84598	43.27089	1062998	Kingdom of Asturias	50c48dd4738076677d421c4696b8bd75	Spain	907eba32d950bfab68227fd7ea22999b
1a1beb0199da97847b4c5aa96298790f	StateAdminArea	2345022	Atacama Region	Atacama_Region	-69.90121	-27.40483	300000			Chile	2e6507f70a9cc26fb50f5fd82a83c7ef
ed6d5c8a48fc3ec9e0b08449347ed242	CountyAdminArea	12590013	Atascosa County, Texas	Atascosa_County,_Texas	-98.45173	28.93164	51153	Texas	86871c416a7dbed7e5cc229d143d8d82	United States	09d4bca31e2fd8b0f57f79f85ed42bd8
6a020cfb10ed07f95372e1019d179a8a	CountyAdminArea	12588373	Atchison County, Kansas	Atchison_County,_Kansas	-95.26955	39.53578	16073	Kansas	7c0e2b92f76ed5847aa48a3a1e70ae7d	United States	09d4bca31e2fd8b0f57f79f85ed42bd8
a81607f84cf48d385fcc221fe1cce7a2	CountyAdminArea	12588968	Atchison County, Missouri	Atchison_County,_Missouri	-95.47592	40.42357	5143	Missouri	06fa309b609b7c8f7c39a88abe2d507c	United States	09d4bca31e2fd8b0f57f79f85ed42bd8
fb55ba9a281b1c20507f1c61ab594873	CountyAdminArea	12589531	Athens County, Ohio	Athens_County,_Ohio	-82.01009	39.36835	65327	Ohio	4ec96adb9cc39333f3d2024b28f2503f	United States	09d4bca31e2fd8b0f57f79f85ed42bd8
b5d3f97d7f342b91a3ef51a0e7ab502d	CountyAdminArea	12587871	Atkinson County, Georgia	Atkinson_County,_Georgia	-82.88521	31.30174	8165	Georgia	7f3097563d468719d72c6df98a69f6de	United States	09d4bca31e2fd8b0f57f79f85ed42bd8
dc2913ba227f01bd02fa21ff1705cd0e	CountyAdminArea	12589258	Atlantic County, New Jersey	Atlantic_County,_New_Jersey	-74.68127	39.50927	263670	New Jersey	5ac9ad692818005c50aae8afe95861d6	United States	09d4bca31e2fd8b0f57f79f85ed42bd8
15eaa66fd7043f40b155a26d17170304	CountyAdminArea	12589617	Atoka County, Oklahoma	Atoka_County,_Oklahoma	-96.03964	34.41855	13758	Oklahoma	92aec0ba411203aa3a57aec94b108ed6	United States	09d4bca31e2fd8b0f57f79f85ed42bd8
ee5d010592ddd7e8b74afb2f730dcaf4	CountyAdminArea	12588887	Attala County, Mississippi	Attala_County,_Mississippi	-89.64168	33.08279	18174	Mississippi	14c5492ce2fe855f408481fdbd13f7a6	United States	09d4bca31e2fd8b0f57f79f85ed42bd8
45562c34e090ea9cea398a1a4637a9ac	CountyAdminArea	12588969	Audrain County, Missouri	Audrain_County,_Missouri	-91.86159	39.20361	25388	Missouri	06fa309b609b7c8f7c39a88abe2d507c	United States	09d4bca31e2fd8b0f57f79f85ed42bd8
dab9c6b266d0a1367d46424495b8fbb9	CountyAdminArea	12588276	Audubon County, Iowa	Audubon_County,_Iowa	-94.89696	41.68377	5496	Iowa	0daaf4a9abe3920c453a7f1f82a9bb19	United States	09d4bca31e2fd8b0f57f79f85ed42bd8
551ca992b6a7f36fe4986fc8a4d166bc	CountyAdminArea	12589532	Auglaize County, Ohio	Auglaize_County,_Ohio	-84.16799	40.52033	45656	Ohio	4ec96adb9cc39333f3d2024b28f2503f	United States	09d4bca31e2fd8b0f57f79f85ed42bd8
c2e00bed700675f07230972ea334603a	CountyAdminArea	12590312	Augusta County, Virginia	Augusta_County,_Virginia	-79.14107	38.1798	75558	Virginia	c8b287075ce4f11c834d2a0ada967ddc	United States	09d4bca31e2fd8b0f57f79f85ed42bd8
2d5d27126bb81cf4be57b35eca12e6c8	CountyAdminArea	12589846	Aurora County, South Dakota	Aurora_County,_South_Dakota	-98.56413	43.71814	2751	South Dakota	9b0faa6c816be68592b17dae38fd88b3	United States	09d4bca31e2fd8b0f57f79f85ed42bd8
ca80c1b062af09a184930d3ae3bf5875	CountyAdminArea	12590014	Austin County, Texas	Austin_County,_Texas	-96.31314	29.84934	30032	Texas	86871c416a7dbed7e5cc229d143d8d82	United States	09d4bca31e2fd8b0f57f79f85ed42bd8
4442e4af0916f53a07fb8ca9a49b98ed	Country	23424748	Australia	Australia	133.398	-24.9121	19978100				
7188ee817ff0ec57b9ed4987e2b9341d	StateAdminArea	2344699	Australian Capital Territory	Australian_Capital_Territory	149.0025	-35.48879	428060			Australia	4442e4af0916f53a07fb8ca9a49b98ed
9891739094756d2605946c867b32ad28	Country	23424750	Austria	Austria	13.34577	47.69651	8902600				
78fb973e0330b5bef80178cb2ee15544	CountyAdminArea	12587487	Autauga County, Alabama	Autauga_County,_Alabama	-86.66611	32.50771	55869	Alabama	213fe69502445ed67ae8b99d22838802	United States	09d4bca31e2fd8b0f57f79f85ed42bd8
3f92108513db497e9a610a29ad5fbfbf	StateAdminArea		Autonomous Province of Kosovo and Metohija	Autonomous_Province_of_Kosovo_and_Metohija	21.166668	42.666668	1780021			Serbia	2ff6e535bd2f100979a171ad430e642b
ef146e938210508bb6ffc8975ec9fe61	CountyAdminArea	12589379	Avery County, North Carolina	Avery_County,_North_Carolina	-81.90831	36.09929	17557	North Carolina	5c520b852c5d7c99a71f1635ae84e1d2	United States	09d4bca31e2fd8b0f57f79f85ed42bd8
c2cfd17dc1cae739fe2bb3c6fceb644f	CountyAdminArea	12588600	Avoyelles Parish, Louisiana	Avoyelles_Parish,_Louisiana	-91.97911	31.09626	40144	Louisiana	39da6b7e3479522718668deaf7e6f304	United States	09d4bca31e2fd8b0f57f79f85ed42bd8
7176f8c3bccfdf02322c73f7a0bc9688	Country	23424741	Azerbaijan	Azerbaijan	47.68707	40.15134	8239200				
7f5750045ae8342de1146ca353fbca72	CountyAdminArea	12587732	Baca County, Colorado	Baca_County,_Colorado	-102.56451	37.31864	3581	Colorado	15e49475e42539feed93fc5cce25d3cb	United States	09d4bca31e2fd8b0f57f79f85ed42bd8
9199a7b8c4baa4b0254d9d749e127017	CountyAdminArea	12587872	Bacon County, Georgia	Bacon_County,_Georgia	-82.42746	31.56383	11164	Georgia	7f3097563d468719d72c6df98a69f6de	United States	09d4bca31e2fd8b0f57f79f85ed42bd8
6ddecd8ccd9f648d19dc02c7a566cb4f	Country	23424753	Bahrain	Bahrain	50.5485	26.02475	730500				
220b1e8c1f4f04798115de8b213360ac	CountyAdminArea	12590015	Bailey County, Texas	Bailey_County,_Texas	-102.83122	34.06873	7000	Texas	86871c416a7dbed7e5cc229d143d8d82	United States	09d4bca31e2fd8b0f57f79f85ed42bd8
bad4725e7deeb53c25ac96ce13c39603	CountyAdminArea	12587804	Baker County, Florida	Baker_County,_Florida	-82.25433	30.36026	29210	Florida	eeaca0ed2f6a35370c77de30792debb8	United States	09d4bca31e2fd8b0f57f79f85ed42bd8
cd959fe56e55688520ad1515b3a4fb42	CountyAdminArea	12587873	Baker County, Georgia	Baker_County,_Georgia	-84.39105	31.26369	3038	Georgia	7f3097563d468719d72c6df98a69f6de	United States	09d4bca31e2fd8b0f57f79f85ed42bd8
3cc51cfc2e72ec227046583c7cf6dd7e	CountyAdminArea	12589692	Baker County, Oregon	Baker_County,_Oregon	-117.65106	44.66808	16124	Oregon	da4d1129a255f83fb03bf32fde034ecc	United States	09d4bca31e2fd8b0f57f79f85ed42bd8
43e6b42296ad36c2ff19f0233559e2e7	CountyAdminArea	12587488	Baldwin County, Alabama	Baldwin_County,_Alabama	-87.70876	30.7698	223234	Alabama	213fe69502445ed67ae8b99d22838802	United States	09d4bca31e2fd8b0f57f79f85ed42bd8
0c37e245344556e0f10965c80b984fbd	CountyAdminArea	12587874	Baldwin County, Georgia	Baldwin_County,_Georgia	-83.23848	33.05843	44890	Georgia	7f3097563d468719d72c6df98a69f6de	United States	09d4bca31e2fd8b0f57f79f85ed42bd8
424a76833ca99e5863fb117fdb6d535f	CountyAdminArea	12602088	Balearic Islands	Balearic_Islands	2.91156	39.61353	841669	Balearic Islands	424a76833ca99e5863fb117fdb6d535f	Spain	907eba32d950bfab68227fd7ea22999b
e1001c30b71861409f61513cc5b51a77	CountyAdminArea	12588479	Ballard County, Kentucky	Ballard_County,_Kentucky	-88.9992	37.07273	7888	Kentucky	980ceec1dba2d36c2ba867f683b47838	United States	09d4bca31e2fd8b0f57f79f85ed42bd8
a85f0bc17a101dcb273fc2a841dc0646	CityTown	12588679	Baltimore	Baltimore	-76.62022	39.30479	593490	Maryland	11ea71f253acf02a2d126a0901e765a7	United States	09d4bca31e2fd8b0f57f79f85ed42bd8
f2115cca210d44eba61d9345cac028f5	CountyAdminArea	12588678	Baltimore County, Maryland	Baltimore_County,_Maryland	-76.6136	39.45827	827370	Maryland	11ea71f253acf02a2d126a0901e765a7	United States	09d4bca31e2fd8b0f57f79f85ed42bd8
1dd0ee9f310c0c8d594394a69ac455d1	CountyAdminArea	12589804	Bamberg County, South Carolina	Bamberg_County,_South_Carolina	-81.01293	33.23277	14066	South Carolina	aeeb87d118446317ff4f4d5e8d19283f	United States	09d4bca31e2fd8b0f57f79f85ed42bd8
40146db490d7a9cd206b52c50cfabc0e	CountyAdminArea	12590016	Bandera County, Texas	Bandera_County,_Texas	-99.19119	29.72963	23112	Texas	86871c416a7dbed7e5cc229d143d8d82	United States	09d4bca31e2fd8b0f57f79f85ed42bd8
f78a77f631d275aac6a914a17fe1b885	Country	23424759	Bangladesh	Bangladesh	90.3509	23.68745	138900600				
c2494a7608ed0c8cc12ed44da933c7dc	CountyAdminArea	12587875	Banks County, Georgia	Banks_County,_Georgia	-83.50365	34.34463	19234	Georgia	7f3097563d468719d72c6df98a69f6de	United States	09d4bca31e2fd8b0f57f79f85ed42bd8
3a92f1f76af9778c5a9c55cc9274915d	CountyAdminArea	12589141	Banner County, Nebraska	Banner_County,_Nebraska	-103.71006	41.54641	745	Nebraska	20639b767478006218447b27e4b853cb	United States	09d4bca31e2fd8b0f57f79f85ed42bd8
f03ef1e7b9eda7758179f95dd1367885	CountyAdminArea	12588036	Bannock County, Idaho	Bannock_County,_Idaho	-112.31388	42.6394	87808	Idaho	47b231eae4bf87fa405e34eb9273b741	United States	09d4bca31e2fd8b0f57f79f85ed42bd8
8475536bb865dbccc8199a43f44a45db	CountyAdminArea	12588720	Baraga County, Michigan	Baraga_County,_Michigan	-88.33535	46.69334	8209	Michigan	8eadc5d3e1f1919c527b6d865e226a88	United States	09d4bca31e2fd8b0f57f79f85ed42bd8
3214c0f21d200a1dae4eb83a53ec2730	Country	23424754	Barbados	Barbados	-59.53465	13.18355	264300				
fca680f3b1c19224de6245e82d8f2fa0	CountyAdminArea	12588374	Barber County, Kansas	Barber_County,_Kansas	-98.67986	37.23458	4427	Kansas	7c0e2b92f76ed5847aa48a3a1e70ae7d	United States	09d4bca31e2fd8b0f57f79f85ed42bd8
d7f34c76271abd72a4b8041d74c47677	CountyAdminArea	12587489	Barbour County, Alabama	Barbour_County,_Alabama	-85.39843	31.88278	24686	Alabama	213fe69502445ed67ae8b99d22838802	United States	09d4bca31e2fd8b0f57f79f85ed42bd8
66497d55a95322c4f4510254d4493937	CountyAdminArea	12590479	Barbour County, West Virginia	Barbour_County,_West_Virginia	-80.01793	39.12521	16441	West Virginia	40165c0d1d578a7bbded085c5def3f48	United States	09d4bca31e2fd8b0f57f79f85ed42bd8
0d1604a1a63a69a1cad57f624694f03b	CountyAdminArea	12589475	Barnes County, North Dakota	Barnes_County,_North_Dakota	-98.07452	46.9356	10415	North Dakota	3971735868c1886348955beb9c7d72bd	United States	09d4bca31e2fd8b0f57f79f85ed42bd8
5b7b7e9d118307accbf4d9a78c41bee8	CountyAdminArea	12588700	Barnstable County, Massachusetts	Barnstable_County,_Massachusetts	-69.97465	41.79861	212990	Massachusetts	7d07b15a160712cc823f7a117fb9b2c1	United States	09d4bca31e2fd8b0f57f79f85ed42bd8
07a45aaa1ffc4e0865f7ab979dd241e2	CountyAdminArea	12589805	Barnwell County, South Carolina	Barnwell_County,_South_Carolina	-81.48269	33.29176	20866	South Carolina	aeeb87d118446317ff4f4d5e8d19283f	United States	09d4bca31e2fd8b0f57f79f85ed42bd8
a8e060af1b8519c5da076dce7fb9a841	CountyAdminArea	12588480	Barren County, Kentucky	Barren_County,_Kentucky	-85.95783	36.94626	44249	Kentucky	980ceec1dba2d36c2ba867f683b47838	United States	09d4bca31e2fd8b0f57f79f85ed42bd8
4c2f590a1a881343921371e4b19650c8	CountyAdminArea	12590536	Barron County, Wisconsin	Barron_County,_Wisconsin	-91.84818	45.42336	45244	Wisconsin	5aeb407b7ca7f3fe0dc50003b1e0712f	United States	09d4bca31e2fd8b0f57f79f85ed42bd8
17b0d504bdc07dad87bc7f333537fa41	CountyAdminArea	12587876	Barrow County, Georgia	Barrow_County,_Georgia	-83.70319	34.01122	83240	Georgia	7f3097563d468719d72c6df98a69f6de	United States	09d4bca31e2fd8b0f57f79f85ed42bd8
d3611f3fb92876c8946577ce5fdfe2e1	CountyAdminArea	12588721	Barry County, Michigan	Barry_County,_Michigan	-85.30853	42.59522	61550	Michigan	8eadc5d3e1f1919c527b6d865e226a88	United States	09d4bca31e2fd8b0f57f79f85ed42bd8
b867f08b8e73e81c18dcd60da607086d	CountyAdminArea	12588970	Barry County, Missouri	Barry_County,_Missouri	-93.82554	36.71517	35789	Missouri	06fa309b609b7c8f7c39a88abe2d507c	United States	09d4bca31e2fd8b0f57f79f85ed42bd8
e7a2190c1fe54a06a6680f86930c5d50	CountyAdminArea	12588182	Bartholomew County, Indiana	Bartholomew_County,_Indiana	-85.88509	39.193	83779	Indiana	c5376d00573c5858adf7ed894d0491b9	United States	09d4bca31e2fd8b0f57f79f85ed42bd8
a97e4d249be0a5839c742a9ea1cf8113	CountyAdminArea	12588375	Barton County, Kansas	Barton_County,_Kansas	-98.75645	38.47885	25779	Kansas	7c0e2b92f76ed5847aa48a3a1e70ae7d	United States	09d4bca31e2fd8b0f57f79f85ed42bd8
f970a69af75790913b5dc1a91dd4bc69	CountyAdminArea	12588971	Barton County, Missouri	Barton_County,_Missouri	-94.34567	37.50142	11754	Missouri	06fa309b609b7c8f7c39a88abe2d507c	United States	09d4bca31e2fd8b0f57f79f85ed42bd8
645de12e0f2920659e492e844b8a9579	CountyAdminArea	12587877	Bartow County, Georgia	Bartow_County,_Georgia	-84.84587	34.24408	107738	Georgia	7f3097563d468719d72c6df98a69f6de	United States	09d4bca31e2fd8b0f57f79f85ed42bd8
97db1e4ee88adfea537c30b0aa653a63	StateAdminArea	7153331	Basilicata	Basilicata	16.102	40.5168	595727			Italy	1007e1b7f894dfbf72a0eaa80f3bc57e
ebd9ba99ad127ded62bd4825f1882b60	StateAdminArea	12578037	Basque Country (autonomous community)	Basque_Country_(autonomous_community)	-2.58927	42.96392	2189534			Spain	907eba32d950bfab68227fd7ea22999b
e2aee96e06bb08d1cc6e12c240a11602	CountyAdminArea	12590017	Bastrop County, Texas	Bastrop_County,_Texas	-97.33665	30.10304	88723	Texas	86871c416a7dbed7e5cc229d143d8d82	United States	09d4bca31e2fd8b0f57f79f85ed42bd8
6f91b7941eb79a5eea5f6ec3f643276b	CountyAdminArea	12588972	Bates County, Missouri	Bates_County,_Missouri	-94.33206	38.25172	16172	Missouri	06fa309b609b7c8f7c39a88abe2d507c	United States	09d4bca31e2fd8b0f57f79f85ed42bd8
3513bfa2f8ec4033727b1137909e658f	CountyAdminArea	12588481	Bath County, Kentucky	Bath_County,_Kentucky	-83.72155	38.14762	12500	Kentucky	980ceec1dba2d36c2ba867f683b47838	United States	09d4bca31e2fd8b0f57f79f85ed42bd8
1cf64d3324168aa6d312f37803f96c0a	CountyAdminArea	12590313	Bath County, Virginia	Bath_County,_Virginia	-79.74671	38.0523	4147	Virginia	c8b287075ce4f11c834d2a0ada967ddc	United States	09d4bca31e2fd8b0f57f79f85ed42bd8
d1cd5c9df36ae32eb2172225a84c3387	CountyAdminArea	12587597	Baxter County, Arkansas	Baxter_County,_Arkansas	-92.37291	36.23629	41932	Arkansas	46aaf459104e9ce5d45eaa017ac349c2	United States	09d4bca31e2fd8b0f57f79f85ed42bd8
42ded858b7cfa851aff8eec6437142fd	CountyAdminArea	12587805	Bay County, Florida	Bay_County,_Florida	-85.69019	30.29818	174705	Florida	eeaca0ed2f6a35370c77de30792debb8	United States	09d4bca31e2fd8b0f57f79f85ed42bd8
697853f107d557cd74b11640d2513127	CountyAdminArea	12588722	Bay County, Michigan	Bay_County,_Michigan	-84.0558	43.73833	103126	Michigan	8eadc5d3e1f1919c527b6d865e226a88	United States	09d4bca31e2fd8b0f57f79f85ed42bd8
859a18bad84184d704fd68a8faeeea1a	StateAdminArea	15021753	Bay of Plenty	Bay_of_Plenty	176.82452	-38.15894	277200			New Zealand	23113b12a9d8135100497751756d4bee
1ac43d883d301fdaf2dd363f51b02492	CountyAdminArea	12590537	Bayfield County, Wisconsin	Bayfield_County,_Wisconsin	-91.15248	46.55853	15036	Wisconsin	5aeb407b7ca7f3fe0dc50003b1e0712f	United States	09d4bca31e2fd8b0f57f79f85ed42bd8
13bb406dbf5ac80e01cb501a8849b793	CountyAdminArea	12590018	Baylor County, Texas	Baylor_County,_Texas	-99.21415	33.61581	3509	Texas	86871c416a7dbed7e5cc229d143d8d82	United States	09d4bca31e2fd8b0f57f79f85ed42bd8
4995591bf64c77d4d33bb7801d998233	CountyAdminArea	12589847	Beadle County, South Dakota	Beadle_County,_South_Dakota	-98.27944	44.41438	18453	South Dakota	9b0faa6c816be68592b17dae38fd88b3	United States	09d4bca31e2fd8b0f57f79f85ed42bd8
6504864de33fe90beb43f80163996e16	CountyAdminArea	12588037	Bear Lake County, Idaho	Bear_Lake_County,_Idaho	-111.34133	42.30143	6125	Idaho	47b231eae4bf87fa405e34eb9273b741	United States	09d4bca31e2fd8b0f57f79f85ed42bd8
a8add84efdba112955d711b30946da5c	CountyAdminArea	12589380	Beaufort County, North Carolina	Beaufort_County,_North_Carolina	-76.83372	35.56365	46994	North Carolina	5c520b852c5d7c99a71f1635ae84e1d2	United States	09d4bca31e2fd8b0f57f79f85ed42bd8
e0d04a1325140583c154d2a8f4150322	CountyAdminArea	12589806	Beaufort County, South Carolina	Beaufort_County,_South_Carolina	-80.64768	32.47989	192122	South Carolina	aeeb87d118446317ff4f4d5e8d19283f	United States	09d4bca31e2fd8b0f57f79f85ed42bd8
dd4da3d9bf9b7d596f5ce38b4a80b9d1	CountyAdminArea	12588601	Beauregard Parish, Louisiana	Beauregard_Parish,_Louisiana	-93.35932	30.64296	37497	Louisiana	39da6b7e3479522718668deaf7e6f304	United States	09d4bca31e2fd8b0f57f79f85ed42bd8
1850b418aa2bff87076bc87d21b7be9d	CountyAdminArea	12589618	Beaver County, Oklahoma	Beaver_County,_Oklahoma	-100.47833	36.75102	5311	Oklahoma	92aec0ba411203aa3a57aec94b108ed6	United States	09d4bca31e2fd8b0f57f79f85ed42bd8
4d56a231c8e016f93ffff2a77a14e699	CountyAdminArea	12589731	Beaver County, Pennsylvania	Beaver_County,_Pennsylvania	-80.33185	40.66582	163929	Pennsylvania	9ac31dfb3a2f5b994f4009eb0a3c0949	United States	09d4bca31e2fd8b0f57f79f85ed42bd8
93dbb802c943b1c149772e2b8766c378	CountyAdminArea	12590261	Beaver County, Utah	Beaver_County,_Utah	-113.19289	38.36073	6710	Utah	6a382f5bfa3db109c81ec4adbf70ff26	United States	09d4bca31e2fd8b0f57f79f85ed42bd8
cecaf1feb1bea076cad2b469577683e5	CountyAdminArea	12589081	Beaverhead County, Montana	Beaverhead_County,_Montana	-112.7008	45.14945	9453	Montana	a8088b760fb315d2964735686800b203	United States	09d4bca31e2fd8b0f57f79f85ed42bd8
2e3f0528ad1217146aaab84d7b7b75d6	CountyAdminArea	12588799	Becker County, Minnesota	Becker_County,_Minnesota	-95.67833	46.93399	34423	Minnesota	45009b4a16ef03ba8bb5b15665ef4469	United States	09d4bca31e2fd8b0f57f79f85ed42bd8
7b3c94a1212408593d0df6c3177f32e1	CountyAdminArea	12589619	Beckham County, Oklahoma	Beckham_County,_Oklahoma	-99.68023	35.26933	21859	Oklahoma	92aec0ba411203aa3a57aec94b108ed6	United States	09d4bca31e2fd8b0f57f79f85ed42bd8
f861cc217f57cfcdc0cdebcd67ea8790	CountyAdminArea	12589732	Bedford County, Pennsylvania	Bedford_County,_Pennsylvania	-78.47142	40.02472	47888	Pennsylvania	9ac31dfb3a2f5b994f4009eb0a3c0949	United States	09d4bca31e2fd8b0f57f79f85ed42bd8
83fbde95970f93512e291d7e8f634d74	CountyAdminArea	12589913	Bedford County, Tennessee	Bedford_County,_Tennessee	-86.45017	35.5108	49713	Tennessee	a5c53b081bf565526eb3779db999becf	United States	09d4bca31e2fd8b0f57f79f85ed42bd8
dfc00f65d53f49874e9d0428bdab10ca	CountyAdminArea	12590314	Bedford County, Virginia	Bedford_County,_Virginia	-79.5214	37.312	78997	Virginia	c8b287075ce4f11c834d2a0ada967ddc	United States	09d4bca31e2fd8b0f57f79f85ed42bd8
eba981b4585dc41b6f7e36619346e3a3	CountyAdminArea	12590019	Bee County, Texas	Bee_County,_Texas	-97.73263	28.4245	32565	Texas	86871c416a7dbed7e5cc229d143d8d82	United States	09d4bca31e2fd8b0f57f79f85ed42bd8
6542f875eaa09a5c550e5f3986400ad9	Country	23424765	Belarus	Belarus	27.97375	53.71105	9491800				
6c1674d14bf5f95742f572cddb0641a7	Country	23424757	Belgium	Belgium	4.47684	50.50101	10339300				
20bca6785240fa722edb5c85d055a93d	Country	23424760	Belize	Belize	-88.65284	17.19292	408487				
c47f6394901e67c0b4158d984f642b3c	CountyAdminArea	12589248	Belknap County, New Hampshire	Belknap_County,_New_Hampshire	-71.44537	43.52286	61303	New Hampshire	86db7eb10eb3963430f2f777499fe29a	United States	09d4bca31e2fd8b0f57f79f85ed42bd8
2f8ef23c64a2b154ce692d626613cd1f	CountyAdminArea	12588482	Bell County, Kentucky	Bell_County,_Kentucky	-83.7084	36.76908	26032	Kentucky	980ceec1dba2d36c2ba867f683b47838	United States	09d4bca31e2fd8b0f57f79f85ed42bd8
3947c2f3df058905e037b3b66233542c	CountyAdminArea	12590020	Bell County, Texas	Bell_County,_Texas	-97.49185	31.03624	362924	Texas	86871c416a7dbed7e5cc229d143d8d82	United States	09d4bca31e2fd8b0f57f79f85ed42bd8
7476f8f40c1fce73f33505f4e3acfb58	CountyAdminArea	12589533	Belmont County, Ohio	Belmont_County,_Ohio	-80.96974	40.01134	67006	Ohio	4ec96adb9cc39333f3d2024b28f2503f	United States	09d4bca31e2fd8b0f57f79f85ed42bd8
d958f781ed2d12bcaa496009f82ebce5	CountyAdminArea	12588800	Beltrami County, Minnesota	Beltrami_County,_Minnesota	-95.00827	47.97485	47188	Minnesota	45009b4a16ef03ba8bb5b15665ef4469	United States	09d4bca31e2fd8b0f57f79f85ed42bd8
fc5e8b20c6d33225d0dbbe8f4f23e0db	CountyAdminArea	12587878	Ben Hill County, Georgia	Ben_Hill_County,_Georgia	-83.2401	31.75183	16700	Georgia	7f3097563d468719d72c6df98a69f6de	United States	09d4bca31e2fd8b0f57f79f85ed42bd8
d479fdefaa7a75d970774ae7b0653857	CountyAdminArea	12588038	Benewah County, Idaho	Benewah_County,_Idaho	-116.68224	47.21828	9298	Idaho	47b231eae4bf87fa405e34eb9273b741	United States	09d4bca31e2fd8b0f57f79f85ed42bd8
9e7002d53d4db7bfad4f5cf419b0c126	Country	23424764	Benin	Benin	2.31313	9.32204	6738600				
230e7dd581361ef5e56023dfd3859f2d	CountyAdminArea	12589848	Bennett County, South Dakota	Bennett_County,_South_Dakota	-101.66927	43.19301	3365	South Dakota	9b0faa6c816be68592b17dae38fd88b3	United States	09d4bca31e2fd8b0f57f79f85ed42bd8
a9b5f78711cf0fd978d56612016c93f8	CountyAdminArea	12590291	Bennington County, Vermont	Bennington_County,_Vermont	-73.05509	43.02669	35470	Vermont	de30bd840230da1493819f803aff6e9e	United States	09d4bca31e2fd8b0f57f79f85ed42bd8
db9144130313544e1c54888eb6b4a067	CountyAdminArea	12589476	Benson County, North Dakota	Benson_County,_North_Dakota	-99.18683	48.10872	6832	North Dakota	3971735868c1886348955beb9c7d72bd	United States	09d4bca31e2fd8b0f57f79f85ed42bd8
3b6aa8973b22a700948521c929a76e07	CountyAdminArea	12587733	Bent County, Colorado	Bent_County,_Colorado	-103.07248	37.95553	5577	Colorado	15e49475e42539feed93fc5cce25d3cb	United States	09d4bca31e2fd8b0f57f79f85ed42bd8
98353e5f7364f50edae62179535209e8	CountyAdminArea	12587598	Benton County, Arkansas	Benton_County,_Arkansas	-94.24282	36.29944	279141	Arkansas	46aaf459104e9ce5d45eaa017ac349c2	United States	09d4bca31e2fd8b0f57f79f85ed42bd8
98fb2afb1944e7b67cde605d5f9cfed3	CountyAdminArea	12588183	Benton County, Indiana	Benton_County,_Indiana	-87.31006	40.60629	8748	Indiana	c5376d00573c5858adf7ed894d0491b9	United States	09d4bca31e2fd8b0f57f79f85ed42bd8
90606ff4da1e090ea45a48fb53c52f91	CountyAdminArea	12588277	Benton County, Iowa	Benton_County,_Iowa	-92.06519	42.0803	25645	Iowa	0daaf4a9abe3920c453a7f1f82a9bb19	United States	09d4bca31e2fd8b0f57f79f85ed42bd8
6fbad77bfbad55dd9cb08019645a533b	CountyAdminArea	12588801	Benton County, Minnesota	Benton_County,_Minnesota	-94.05612	45.69161	40889	Minnesota	45009b4a16ef03ba8bb5b15665ef4469	United States	09d4bca31e2fd8b0f57f79f85ed42bd8
8a36cbc1495d3b1c765888392417977c	CountyAdminArea	12588888	Benton County, Mississippi	Benton_County,_Mississippi	-89.18488	34.78884	8259	Mississippi	14c5492ce2fe855f408481fdbd13f7a6	United States	09d4bca31e2fd8b0f57f79f85ed42bd8
bca2885cfc9c479d83e0341f8b697213	CountyAdminArea	12588973	Benton County, Missouri	Benton_County,_Missouri	-93.2914	38.29885	19443	Missouri	06fa309b609b7c8f7c39a88abe2d507c	United States	09d4bca31e2fd8b0f57f79f85ed42bd8
6617aa9326e4232e0dfe895a10f2c37c	CountyAdminArea	12589693	Benton County, Oregon	Benton_County,_Oregon	-123.44498	44.49888	93053	Oregon	da4d1129a255f83fb03bf32fde034ecc	United States	09d4bca31e2fd8b0f57f79f85ed42bd8
5e9293ae4ed7d1e8c68c9e3c139d323a	CountyAdminArea	12589914	Benton County, Tennessee	Benton_County,_Tennessee	-88.07037	36.0859	16160	Tennessee	a5c53b081bf565526eb3779db999becf	United States	09d4bca31e2fd8b0f57f79f85ed42bd8
962697fac099b8d0b127ea40cbe45124	CountyAdminArea	12590442	Benton County, Washington	Benton_County,_Washington	-119.40862	46.28166	204390	Washington	11d9591c9feee10969173c347e551a9a	United States	09d4bca31e2fd8b0f57f79f85ed42bd8
d8016f281583c8eb52e05ea99d444daf	CountyAdminArea	12588723	Benzie County, Michigan	Benzie_County,_Michigan	-86.03707	44.64583	17766	Michigan	8eadc5d3e1f1919c527b6d865e226a88	United States	09d4bca31e2fd8b0f57f79f85ed42bd8
6a2d9efe01acc8227f74ed0f1d318f22	CountyAdminArea	12589259	Bergen County, New Jersey	Bergen_County,_New_Jersey	-74.08317	40.94757	932202	New Jersey	5ac9ad692818005c50aae8afe95861d6	United States	09d4bca31e2fd8b0f57f79f85ed42bd8
eadfc3590793d64fc1f9e410c842fea9	CountyAdminArea	12589807	Berkeley County, South Carolina	Berkeley_County,_South_Carolina	-79.90424	33.16443	227907	South Carolina	aeeb87d118446317ff4f4d5e8d19283f	United States	09d4bca31e2fd8b0f57f79f85ed42bd8
76fc6b74dc4961c56b39aa9c5f68beee	CountyAdminArea	12590480	Berkeley County, West Virginia	Berkeley_County,_West_Virginia	-78.02594	39.4427	119171	West Virginia	40165c0d1d578a7bbded085c5def3f48	United States	09d4bca31e2fd8b0f57f79f85ed42bd8
3617de9bce14614c87f9327662707812	CountyAdminArea	12589733	Berks County, Pennsylvania	Berks_County,_Pennsylvania	-75.98492	40.40704	421164	Pennsylvania	9ac31dfb3a2f5b994f4009eb0a3c0949	United States	09d4bca31e2fd8b0f57f79f85ed42bd8
cef4666d65de48ebf55f51a7368672d6	CountyAdminArea	12588701	Berkshire County, Massachusetts	Berkshire_County,_Massachusetts	-73.2284	42.3928	124944	Massachusetts	7d07b15a160712cc823f7a117fb9b2c1	United States	09d4bca31e2fd8b0f57f79f85ed42bd8
6653bea16d7ac8a266d752e9a0176c4f	Country	23424756	Bermuda	Bermuda	-64.78547	32.3031	64500				
fb1f6a1587e3fbc0dd56031745e8ba29	CountyAdminArea	12589279	Bernalillo County, New Mexico	Bernalillo_County,_New_Mexico	-106.6738	35.04432	679121	New Mexico	2a18ef32f87bb40c0d17130828cfb473	United States	09d4bca31e2fd8b0f57f79f85ed42bd8
5891ed67f03db509dd1ef9df72e8c3bb	CountyAdminArea	12587879	Berrien County, Georgia	Berrien_County,_Georgia	-83.23638	31.2507	19397	Georgia	7f3097563d468719d72c6df98a69f6de	United States	09d4bca31e2fd8b0f57f79f85ed42bd8
6f0b090399b52e414aff128095b99c78	CountyAdminArea	12588724	Berrien County, Michigan	Berrien_County,_Michigan	-86.52388	42.00151	153401	Michigan	8eadc5d3e1f1919c527b6d865e226a88	United States	09d4bca31e2fd8b0f57f79f85ed42bd8
ea207e876b90e0081293ec08766e434a	CountyAdminArea	12589381	Bertie County, North Carolina	Bertie_County,_North_Carolina	-77.00474	36.0294	18947	North Carolina	5c520b852c5d7c99a71f1635ae84e1d2	United States	09d4bca31e2fd8b0f57f79f85ed42bd8
438d6692ae5656b46f942f3a200adbe7	CountyAdminArea	12587557	Bethel Census Area, Alaska	Bethel_Census_Area,_Alaska	-162.31535	60.39567	18386	Alaska	e15997c74a71c5d9263df6f7a21bc191	United States	09d4bca31e2fd8b0f57f79f85ed42bd8
a54eeb0b286af59809d6cbb5dc155ba6	CountyAdminArea	12590021	Bexar County, Texas	Bexar_County,_Texas	-98.46171	29.43756	2003554	Texas	86871c416a7dbed7e5cc229d143d8d82	United States	09d4bca31e2fd8b0f57f79f85ed42bd8
e65a0ed0e39dd14a9e5af441efb09b37	Country	23424770	Bhutan	Bhutan	90.44227	27.5155	741700				
5e61bbc0f70c87b7d49969d45dc9d665	CountyAdminArea	12587490	Bibb County, Alabama	Bibb_County,_Alabama	-87.14917	33.03914	22394	Alabama	213fe69502445ed67ae8b99d22838802	United States	09d4bca31e2fd8b0f57f79f85ed42bd8
67b453fbda7045eeb117dd76016c08e3	CountyAdminArea	12587880	Bibb County, Georgia	Bibb_County,_Georgia	-83.69112	32.80624	153159	Georgia	7f3097563d468719d72c6df98a69f6de	United States	09d4bca31e2fd8b0f57f79f85ed42bd8
4276431fc94ce2c70cda0899848f4417	CountyAdminArea	12588602	Bienville Parish, Louisiana	Bienville_Parish,_Louisiana	-93.10122	32.36619	13241	Louisiana	39da6b7e3479522718668deaf7e6f304	United States	09d4bca31e2fd8b0f57f79f85ed42bd8
c3bc4f0ed472615bcd8fc0d8dd2deb1e	CountyAdminArea	12589082	Big Horn County, Montana	Big_Horn_County,_Montana	-107.48178	45.51872	13319	Montana	a8088b760fb315d2964735686800b203	United States	09d4bca31e2fd8b0f57f79f85ed42bd8
a4ebbaffccd092acc848baa78513d37a	CountyAdminArea	12590607	Big Horn County, Wyoming	Big_Horn_County,_Wyoming	-107.88353	44.58355	11790	Wyoming	823ee6401883db6f9e5865f51c77d97c	United States	09d4bca31e2fd8b0f57f79f85ed42bd8
0dd78363128e3d684e6a04c158676122	CountyAdminArea	12588802	Big Stone County, Minnesota	Big_Stone_County,_Minnesota	-96.4696	45.38139	4991	Minnesota	45009b4a16ef03ba8bb5b15665ef4469	United States	09d4bca31e2fd8b0f57f79f85ed42bd8
27559de2125101ccb786807bceb46aa1	StateAdminArea	2345742	Bihar	Bihar	85.80107	25.90313	82878796			India	7d31e0da1ab99fe8b08a22118e2f402b
a59105e046724e7946e9cd3e7688b777	CountyAdminArea	12589477	Billings County, North Dakota	Billings_County,_North_Dakota	-103.34998	46.97945	928	North Dakota	3971735868c1886348955beb9c7d72bd	United States	09d4bca31e2fd8b0f57f79f85ed42bd8
1d7b8b297816f24758d59d8ec2d406e3	CountyAdminArea	12588039	Bingham County, Idaho	Bingham_County,_Idaho	-112.29798	43.24477	46811	Idaho	47b231eae4bf87fa405e34eb9273b741	United States	09d4bca31e2fd8b0f57f79f85ed42bd8
57fbe06d15524fb2aadb16a31ea03587	CountyAdminArea	12588278	Black Hawk County, Iowa	Black_Hawk_County,_Iowa	-92.30928	42.46976	131228	Iowa	0daaf4a9abe3920c453a7f1f82a9bb19	United States	09d4bca31e2fd8b0f57f79f85ed42bd8
1b45aebf2f0d3699b44bc8f40913d4dd	CountyAdminArea	12588184	Blackford County, Indiana	Blackford_County,_Indiana	-85.3238	40.47276	11758	Indiana	c5376d00573c5858adf7ed894d0491b9	United States	09d4bca31e2fd8b0f57f79f85ed42bd8
50020141fa5f8cbda93abf95ca309dc6	CountyAdminArea	12589382	Bladen County, North Carolina	Bladen_County,_North_Carolina	-78.53924	34.61176	32722	North Carolina	5c520b852c5d7c99a71f1635ae84e1d2	United States	09d4bca31e2fd8b0f57f79f85ed42bd8
d079e8b2ed866a642a2830a10c3c15d7	CountyAdminArea	12588040	Blaine County, Idaho	Blaine_County,_Idaho	-114.00197	43.30445	23021	Idaho	47b231eae4bf87fa405e34eb9273b741	United States	09d4bca31e2fd8b0f57f79f85ed42bd8
e1a5cdfae89081ba2864d04de0e46f25	CountyAdminArea	12589083	Blaine County, Montana	Blaine_County,_Montana	-108.894	48.36019	6681	Montana	a8088b760fb315d2964735686800b203	United States	09d4bca31e2fd8b0f57f79f85ed42bd8
f46d6934849443ba50379abf13d80b94	CountyAdminArea	12589142	Blaine County, Nebraska	Blaine_County,_Nebraska	-99.97719	41.91246	465	Nebraska	20639b767478006218447b27e4b853cb	United States	09d4bca31e2fd8b0f57f79f85ed42bd8
4634e40a7749ecab3c82905555a061b6	CountyAdminArea	12589620	Blaine County, Oklahoma	Blaine_County,_Oklahoma	-98.42184	35.85844	9429	Oklahoma	92aec0ba411203aa3a57aec94b108ed6	United States	09d4bca31e2fd8b0f57f79f85ed42bd8
80b24f6faf8ff2a923981c4edd10fbeb	CountyAdminArea	12589734	Blair County, Pennsylvania	Blair_County,_Pennsylvania	-78.34415	40.49343	121829	Pennsylvania	9ac31dfb3a2f5b994f4009eb0a3c0949	United States	09d4bca31e2fd8b0f57f79f85ed42bd8
b7e644f94ebb2737dc0c47868c682074	CountyAdminArea	12590022	Blanco County, Texas	Blanco_County,_Texas	-98.35857	30.21996	11931	Texas	86871c416a7dbed7e5cc229d143d8d82	United States	09d4bca31e2fd8b0f57f79f85ed42bd8
7448555646b51c05c48ce2934c6f496f	CountyAdminArea	12590316	Bland County, Virginia	Bland_County,_Virginia	-81.15846	37.12743	6280	Virginia	c8b287075ce4f11c834d2a0ada967ddc	United States	09d4bca31e2fd8b0f57f79f85ed42bd8
14c0efad22624b932a90f5f86d4cb444	CountyAdminArea	12587881	Bleckley County, Georgia	Bleckley_County,_Georgia	-83.31853	32.42838	12873	Georgia	7f3097563d468719d72c6df98a69f6de	United States	09d4bca31e2fd8b0f57f79f85ed42bd8
7347686d7c36aefec5b107508fc65aa1	CountyAdminArea	12589915	Bledsoe County, Tennessee	Bledsoe_County,_Tennessee	-85.17616	35.56298	15064	Tennessee	a5c53b081bf565526eb3779db999becf	United States	09d4bca31e2fd8b0f57f79f85ed42bd8
037a13cc1e282b176a0b6414b41cc98d	CountyAdminArea	12587491	Blount County, Alabama	Blount_County,_Alabama	-86.63345	34.01276	57826	Alabama	213fe69502445ed67ae8b99d22838802	United States	09d4bca31e2fd8b0f57f79f85ed42bd8
1e241e1f52a9cd465475aef9de804482	CountyAdminArea	12589916	Blount County, Tennessee	Blount_County,_Tennessee	-83.92556	35.67384	133088	Tennessee	a5c53b081bf565526eb3779db999becf	United States	09d4bca31e2fd8b0f57f79f85ed42bd8
6f44a2c2977521c150fa209358142d51	CountyAdminArea	12588803	Blue Earth County, Minnesota	Blue_Earth_County,_Minnesota	-94.06955	44.05646	67653	Minnesota	45009b4a16ef03ba8bb5b15665ef4469	United States	09d4bca31e2fd8b0f57f79f85ed42bd8
c38d86abb0be9a85efe4c43604788270	CountyAdminArea	12588041	Boise County, Idaho	Boise_County,_Idaho	-115.62423	43.96922	7831	Idaho	47b231eae4bf87fa405e34eb9273b741	United States	09d4bca31e2fd8b0f57f79f85ed42bd8
cdba10e7dc097ec7bc3dbafa3c17ac45	CountyAdminArea	12588889	Bolivar County, Mississippi	Bolivar_County,_Mississippi	-90.94403	33.82484	30628	Mississippi	14c5492ce2fe855f408481fdbd13f7a6	United States	09d4bca31e2fd8b0f57f79f85ed42bd8
28aaafc355915903ce4a7e1d3af3bc4e	Country	23424762	Bolivia	Bolivia	-63.54942	-16.28835	8676000				
d4eed8a6118c739653398ae79f9b8a40	CountyAdminArea	12588974	Bollinger County, Missouri	Bollinger_County,_Missouri	-90.04192	37.31965	12133	Missouri	06fa309b609b7c8f7c39a88abe2d507c	United States	09d4bca31e2fd8b0f57f79f85ed42bd8
94b216d6e9592798ad1debd986235258	CountyAdminArea	12589849	Bon Homme County, South Dakota	Bon_Homme_County,_South_Dakota	-97.82404	42.96581	6901	South Dakota	9b0faa6c816be68592b17dae38fd88b3	United States	09d4bca31e2fd8b0f57f79f85ed42bd8
db3fa38863bf10be6bbb4d3cd3c8cf9b	CountyAdminArea	12588080	Bond County, Illinois	Bond_County,_Illinois	-89.44469	38.88446	16426	Illinois	66c2b329479ee151b4c6b257c0b7a9b7	United States	09d4bca31e2fd8b0f57f79f85ed42bd8
90042de7e81e404cfe9b4f42ca2d8052	CountyAdminArea	12588042	Bonner County, Idaho	Bonner_County,_Idaho	-116.54553	48.36874	45739	Idaho	47b231eae4bf87fa405e34eb9273b741	United States	09d4bca31e2fd8b0f57f79f85ed42bd8
5f3e63a2e24da485e8eaf5955e6d7779	CountyAdminArea	12588043	Bonneville County, Idaho	Bonneville_County,_Idaho	-111.78223	43.32292	119062	Idaho	47b231eae4bf87fa405e34eb9273b741	United States	09d4bca31e2fd8b0f57f79f85ed42bd8
20109621eddad02ce13f9991fe081eac	CountyAdminArea	12587599	Boone County, Arkansas	Boone_County,_Arkansas	-93.07719	36.30631	37432	Arkansas	46aaf459104e9ce5d45eaa017ac349c2	United States	09d4bca31e2fd8b0f57f79f85ed42bd8
0db67181d84ee8718e0ad975618902c7	CountyAdminArea	12588081	Boone County, Illinois	Boone_County,_Illinois	-88.82319	42.3237	53544	Illinois	66c2b329479ee151b4c6b257c0b7a9b7	United States	09d4bca31e2fd8b0f57f79f85ed42bd8
2b2581d3a918d1885f85e18ea732f302	CountyAdminArea	12588185	Boone County, Indiana	Boone_County,_Indiana	-86.46824	40.05159	67843	Indiana	c5376d00573c5858adf7ed894d0491b9	United States	09d4bca31e2fd8b0f57f79f85ed42bd8
475ca2fde462ae72468dc8f01f48d59f	CountyAdminArea	12588279	Boone County, Iowa	Boone_County,_Iowa	-93.93145	42.0365	26234	Iowa	0daaf4a9abe3920c453a7f1f82a9bb19	United States	09d4bca31e2fd8b0f57f79f85ed42bd8
cd57d9b6cac9605893cba6c36d45213b	CountyAdminArea	12588483	Boone County, Kentucky	Boone_County,_Kentucky	-84.7477	38.96267	133581	Kentucky	980ceec1dba2d36c2ba867f683b47838	United States	09d4bca31e2fd8b0f57f79f85ed42bd8
d57b0281466952eb6921bd44565ebec8	CountyAdminArea	12588975	Boone County, Missouri	Boone_County,_Missouri	-92.33735	38.94597	180463	Missouri	06fa309b609b7c8f7c39a88abe2d507c	United States	09d4bca31e2fd8b0f57f79f85ed42bd8
d1148c2aa337840db0ba196461261334	CountyAdminArea	12589143	Boone County, Nebraska	Boone_County,_Nebraska	-98.06285	41.69843	5192	Nebraska	20639b767478006218447b27e4b853cb	United States	09d4bca31e2fd8b0f57f79f85ed42bd8
5e7823ab1ccd7008b17200b1a7d9e08d	CountyAdminArea	12590481	Boone County, West Virginia	Boone_County,_West_Virginia	-81.71747	37.99696	21457	West Virginia	40165c0d1d578a7bbded085c5def3f48	United States	09d4bca31e2fd8b0f57f79f85ed42bd8
5f2cd850c7ed7bef906cd40c0f88136f	CountyAdminArea	12590023	Borden County, Texas	Borden_County,_Texas	-101.43228	32.74382	654	Texas	86871c416a7dbed7e5cc229d143d8d82	United States	09d4bca31e2fd8b0f57f79f85ed42bd8
c758f309604eaea62c3c519cb2d6d5e3	Country	23424761	Bosnia and Herzegovina	Bosnia_and_Herzegovina	17.67696	43.9201	4207300				
c4ed4dcb2eb48a4d02d1a0edecef55cf	CountyAdminArea	12590024	Bosque County, Texas	Bosque_County,_Texas	-97.64086	31.89746	18685	Texas	86871c416a7dbed7e5cc229d143d8d82	United States	09d4bca31e2fd8b0f57f79f85ed42bd8
114ae365dd9f99c5cbc0070a0d704348	CountyAdminArea	12588603	Bossier Parish, Louisiana	Bossier_Parish,_Louisiana	-93.60875	32.62774	127039	Louisiana	39da6b7e3479522718668deaf7e6f304	United States	09d4bca31e2fd8b0f57f79f85ed42bd8
110d7207f30c09a234010d24e9b56229	CountyAdminArea	12590317	Botetourt County, Virginia	Botetourt_County,_Virginia	-79.78624	37.55505	33419	Virginia	c8b287075ce4f11c834d2a0ada967ddc	United States	09d4bca31e2fd8b0f57f79f85ed42bd8
6cd50fb3091b0a9d3c1ac2cf52441390	Country	23424755	Botswana	Botswana	24.68016	-22.34403	1762100				
db235c91fe0fed3c6bea8bd20969e482	CountyAdminArea	12589478	Bottineau County, North Dakota	Bottineau_County,_North_Dakota	-100.8213	48.77213	6282	North Dakota	3971735868c1886348955beb9c7d72bd	United States	09d4bca31e2fd8b0f57f79f85ed42bd8
db9d1c536fc1cf4c6b6eebdad9f09bbe	CountyAdminArea	12587734	Boulder County, Colorado	Boulder_County,_Colorado	-105.37369	40.08843	326196	Colorado	15e49475e42539feed93fc5cce25d3cb	United States	09d4bca31e2fd8b0f57f79f85ed42bd8
0d5bfb371417d06621525b6da11c9427	CountyAdminArea	12588044	Boundary County, Idaho	Boundary_County,_Idaho	-116.54057	48.75047	12245	Idaho	47b231eae4bf87fa405e34eb9273b741	United States	09d4bca31e2fd8b0f57f79f85ed42bd8
75307fa68f0cd1f9f6e6c8ae9d514d74	CountyAdminArea	12588376	Bourbon County, Kansas	Bourbon_County,_Kansas	-94.85104	37.85545	14534	Kansas	7c0e2b92f76ed5847aa48a3a1e70ae7d	United States	09d4bca31e2fd8b0f57f79f85ed42bd8
b86ac9ab9b3b5d8a690f98e4fc67dd5b	CountyAdminArea	12588484	Bourbon County, Kentucky	Bourbon_County,_Kentucky	-84.20595	38.2193	19788	Kentucky	980ceec1dba2d36c2ba867f683b47838	United States	09d4bca31e2fd8b0f57f79f85ed42bd8
c1a4ebb4c31cb4997ae86aeecab5d776	StateAdminArea		Bourgogne-Franche-Comté	Bourgogne-Franche-Comt%C3%A9			2820940				
837aa8d1eac3e72bf098c7b394c72a74	CountyAdminArea	12590025	Bowie County, Texas	Bowie_County,_Texas	-94.39471	33.47015	93245	Texas	86871c416a7dbed7e5cc229d143d8d82	United States	09d4bca31e2fd8b0f57f79f85ed42bd8
154e5e814dc7229fb1247d6e4efb6df9	CountyAdminArea	12589479	Bowman County, North Dakota	Bowman_County,_North_Dakota	-103.52082	46.11274	3024	North Dakota	3971735868c1886348955beb9c7d72bd	United States	09d4bca31e2fd8b0f57f79f85ed42bd8
db3166c13ade0f50cfe0ef3acb23ee10	CountyAdminArea	12589144	Box Butte County, Nebraska	Box_Butte_County,_Nebraska	-103.07123	42.22041	10783	Nebraska	20639b767478006218447b27e4b853cb	United States	09d4bca31e2fd8b0f57f79f85ed42bd8
b3ca32f3698ff31d221a1eac32fea829	CountyAdminArea	12590262	Box Elder County, Utah	Box_Elder_County,_Utah	-112.95724	41.50058	56046	Utah	6a382f5bfa3db109c81ec4adbf70ff26	United States	09d4bca31e2fd8b0f57f79f85ed42bd8
fa2804c7f608817770594117c146dd22	CountyAdminArea	12588485	Boyd County, Kentucky	Boyd_County,_Kentucky	-82.69466	38.37014	46718	Kentucky	980ceec1dba2d36c2ba867f683b47838	United States	09d4bca31e2fd8b0f57f79f85ed42bd8
014499d7604344e01f2c39c5e1e54247	CountyAdminArea	12589145	Boyd County, Nebraska	Boyd_County,_Nebraska	-98.78135	42.87991	1919	Nebraska	20639b767478006218447b27e4b853cb	United States	09d4bca31e2fd8b0f57f79f85ed42bd8
7b3f07eabec2bec0da68b40f5b19cb63	CountyAdminArea	12588486	Boyle County, Kentucky	Boyle_County,_Kentucky	-84.84562	37.62464	30060	Kentucky	980ceec1dba2d36c2ba867f683b47838	United States	09d4bca31e2fd8b0f57f79f85ed42bd8
e59fb42c9c75a01d6e4e4310c5dfa08e	CountyAdminArea	12588487	Bracken County, Kentucky	Bracken_County,_Kentucky	-84.06996	38.68862	8303	Kentucky	980ceec1dba2d36c2ba867f683b47838	United States	09d4bca31e2fd8b0f57f79f85ed42bd8
511c6f1f7001f45dce5262c88c3e4364	CountyAdminArea	12587806	Bradford County, Florida	Bradford_County,_Florida	-82.23244	29.93076	28201	Florida	eeaca0ed2f6a35370c77de30792debb8	United States	09d4bca31e2fd8b0f57f79f85ed42bd8
50393cc092dfd854a9897b915e6afde8	CountyAdminArea	12589735	Bradford County, Pennsylvania	Bradford_County,_Pennsylvania	-76.52108	41.77197	60323	Pennsylvania	9ac31dfb3a2f5b994f4009eb0a3c0949	United States	09d4bca31e2fd8b0f57f79f85ed42bd8
5b18de752a64acdae7886c378528cd4b	CountyAdminArea	12587600	Bradley County, Arkansas	Bradley_County,_Arkansas	-92.17119	33.4344	10763	Arkansas	46aaf459104e9ce5d45eaa017ac349c2	United States	09d4bca31e2fd8b0f57f79f85ed42bd8
5f40363e1874d70706472b61a6fb2e95	CountyAdminArea	12589917	Bradley County, Tennessee	Bradley_County,_Tennessee	-84.86189	35.17267	108110	Tennessee	a5c53b081bf565526eb3779db999becf	United States	09d4bca31e2fd8b0f57f79f85ed42bd8
94907ca69d586073d000ef573aa5f3ad	CountyAdminArea	12588725	Branch County, Michigan	Branch_County,_Michigan	-85.05931	41.9162	43517	Michigan	8eadc5d3e1f1919c527b6d865e226a88	United States	09d4bca31e2fd8b0f57f79f85ed42bd8
3757bd97a592a4eed2ca18a0d9056eb3	CountyAdminArea	12587882	Brantley County, Georgia	Brantley_County,_Georgia	-82.00801	31.19197	19109	Georgia	7f3097563d468719d72c6df98a69f6de	United States	09d4bca31e2fd8b0f57f79f85ed42bd8
746957d55351a1c187a35b35dc256ff5	CountyAdminArea	12590482	Braxton County, West Virginia	Braxton_County,_West_Virginia	-80.73689	38.70616	13957	West Virginia	40165c0d1d578a7bbded085c5def3f48	United States	09d4bca31e2fd8b0f57f79f85ed42bd8
42537f0fb56e31e20ab9c2305752087d	Country	23424768	Brazil	Brazil	-54.3878	-14.2429	210147125				
806eef239ed9744087846ced39e703ac	CountyAdminArea	12590026	Brazoria County, Texas	Brazoria_County,_Texas	-95.46489	29.21202	374264	Texas	86871c416a7dbed7e5cc229d143d8d82	United States	09d4bca31e2fd8b0f57f79f85ed42bd8
370f52ab8071293ebdd4d9a36c70530d	CountyAdminArea	12590027	Brazos County, Texas	Brazos_County,_Texas	-96.34097	30.65121	229211	Texas	86871c416a7dbed7e5cc229d143d8d82	United States	09d4bca31e2fd8b0f57f79f85ed42bd8
d9302290379cc3c42a4008dec407d2f1	CountyAdminArea	12588488	Breathitt County, Kentucky	Breathitt_County,_Kentucky	-83.26425	37.51493	12630	Kentucky	980ceec1dba2d36c2ba867f683b47838	United States	09d4bca31e2fd8b0f57f79f85ed42bd8
90529cf53b93850e8a6e81408a9887a0	CountyAdminArea	12588489	Breckinridge County, Kentucky	Breckinridge_County,_Kentucky	-86.41478	37.80219	20477	Kentucky	980ceec1dba2d36c2ba867f683b47838	United States	09d4bca31e2fd8b0f57f79f85ed42bd8
a5f95f422ba24f484be679ded4b5dca3	CountyAdminArea	12588280	Bremer County, Iowa	Bremer_County,_Iowa	-92.31789	42.77487	25062	Iowa	0daaf4a9abe3920c453a7f1f82a9bb19	United States	09d4bca31e2fd8b0f57f79f85ed42bd8
c9a26941a3ac5460036f1b9ac3467ba3	CountyAdminArea	12587807	Brevard County, Florida	Brevard_County,_Florida	-80.71719	28.30679	601942	Florida	eeaca0ed2f6a35370c77de30792debb8	United States	09d4bca31e2fd8b0f57f79f85ed42bd8
354ed47ed48a74a027e83ec3eafa656f	CountyAdminArea	12590028	Brewster County, Texas	Brewster_County,_Texas	-103.06048	29.81875	9203	Texas	86871c416a7dbed7e5cc229d143d8d82	United States	09d4bca31e2fd8b0f57f79f85ed42bd8
1873a5b65788f125b14d5bfa190e961f	CountyAdminArea	12590029	Briscoe County, Texas	Briscoe_County,_Texas	-101.20843	34.53041	1546	Texas	86871c416a7dbed7e5cc229d143d8d82	United States	09d4bca31e2fd8b0f57f79f85ed42bd8
da75bcf6250d0992043ae086adc96c4a	CityTown	12590318	Bristol, Virginia	Bristol,_Virginia	-82.18079	36.61662	16762	Virginia	c8b287075ce4f11c834d2a0ada967ddc	United States	09d4bca31e2fd8b0f57f79f85ed42bd8
0e29368d748e57547ace87c3a7161726	CountyAdminArea	12587558	Bristol Bay Borough, Alaska	Bristol_Bay_Borough,_Alaska	-157.15936	58.75227	836	Alaska	e15997c74a71c5d9263df6f7a21bc191	United States	09d4bca31e2fd8b0f57f79f85ed42bd8
5e0e6f7916024c9ec4eb679fa9e957d0	CountyAdminArea	12588702	Bristol County, Massachusetts	Bristol_County,_Massachusetts	-71.11174	41.78858	565217	Massachusetts	7d07b15a160712cc823f7a117fb9b2c1	United States	09d4bca31e2fd8b0f57f79f85ed42bd8
534396ad905e59c3df1de8b7e78936f1	CountyAdminArea	12589795	Bristol County, Rhode Island	Bristol_County,_Rhode_Island	-71.2898	41.7093	48479	Rhode Island	988e1885f34fc9058049b872a11236c5	United States	09d4bca31e2fd8b0f57f79f85ed42bd8
90ec6c80eba0a14bcb76369deb4b6943	StateAdminArea	2344916	British Columbia	British_Columbia	-126.55071	54.49887	4648055			Canada	445d337b5cd5de476f99333df6b0c2a7
8844a70fd7c52028649497f726e7982f	Country	23424983	British Virgin Islands	British_Virgin_Islands	-64.63549	18.42682	2200				
d96b0c48a55dd5c1196584ab793e5643	StateAdminArea		Brittany (administrative region)	Brittany_(administrative_region)	-3.0	48.0	3237097				
bae3aec672900dac791a593bb2732520	CountyAdminArea	12589084	Broadwater County, Montana	Broadwater_County,_Montana	-111.42249	46.3076	6237	Montana	a8088b760fb315d2964735686800b203	United States	09d4bca31e2fd8b0f57f79f85ed42bd8
342b0c4cd8ef2313b4a4dcf4fddc0f3e	CountyAdminArea	12590483	Brooke County, West Virginia	Brooke_County,_West_Virginia	-80.59962	40.2798	21939	West Virginia	40165c0d1d578a7bbded085c5def3f48	United States	09d4bca31e2fd8b0f57f79f85ed42bd8
c42f2de359a3cd51e2c09724e9f53b54	CountyAdminArea	12589850	Brookings County, South Dakota	Brookings_County,_South_Dakota	-96.79072	44.3696	35077	South Dakota	9b0faa6c816be68592b17dae38fd88b3	United States	09d4bca31e2fd8b0f57f79f85ed42bd8
3dfef114c7192d37e1c44efda34a9093	CountyAdminArea	12589335	Brooklyn	Brooklyn	-73.94888	40.65507	2559903	New York (state)	fede9f03ea10983a84201b04a1453558	United States	09d4bca31e2fd8b0f57f79f85ed42bd8
d3bad648bfe2adf36a84601a221a7971	CountyAdminArea	12587883	Brooks County, Georgia	Brooks_County,_Georgia	-83.54518	30.85806	15457	Georgia	7f3097563d468719d72c6df98a69f6de	United States	09d4bca31e2fd8b0f57f79f85ed42bd8
367e92c25672e2c31103f7bbe008ba1d	CountyAdminArea	12590030	Brooks County, Texas	Brooks_County,_Texas	-98.26102	27.02314	7093	Texas	86871c416a7dbed7e5cc229d143d8d82	United States	09d4bca31e2fd8b0f57f79f85ed42bd8
04b63ebd8a09f0901f1bee7f3d0fa813	CountyAdminArea	12589315	Broome County, New York	Broome_County,_New_York	-75.74457	42.20674	190488	New York (state)	fede9f03ea10983a84201b04a1453558	United States	09d4bca31e2fd8b0f57f79f85ed42bd8
0d2565d865fa936c5ebaaccec2adbd23	CityTown	26343011	Broomfield, Colorado	Broomfield,_Colorado	-105.07	39.96666	70465	Colorado	15e49475e42539feed93fc5cce25d3cb	United States	09d4bca31e2fd8b0f57f79f85ed42bd8
4396cdbfe0a2da9e090ee04c7a047bff	CountyAdminArea	12587808	Broward Center for the Performing Arts	Broward_Center_for_the_Performing_Arts	-80.47753	26.14574	1623018	Florida	eeaca0ed2f6a35370c77de30792debb8	United States	09d4bca31e2fd8b0f57f79f85ed42bd8
7933e78e770fe9a692522abfa52294e1	CountyAdminArea	12588082	Brown County, Illinois	Brown_County,_Illinois	-90.71375	39.97245	6578	Illinois	66c2b329479ee151b4c6b257c0b7a9b7	United States	09d4bca31e2fd8b0f57f79f85ed42bd8
7411fda999a5f86662a3fd44b2c292fb	CountyAdminArea	12588186	Brown County, Indiana	Brown_County,_Indiana	-86.23023	39.19629	15092	Indiana	c5376d00573c5858adf7ed894d0491b9	United States	09d4bca31e2fd8b0f57f79f85ed42bd8
4080ae91bf1bbebc8a253ceb257008e1	CountyAdminArea	12588377	Brown County, Kansas	Brown_County,_Kansas	-95.56432	39.82659	9564	Kansas	7c0e2b92f76ed5847aa48a3a1e70ae7d	United States	09d4bca31e2fd8b0f57f79f85ed42bd8
3064bc4a2a9907d3ea60e0b5b7527432	CountyAdminArea	12588804	Brown County, Minnesota	Brown_County,_Minnesota	-94.73875	44.30303	25008	Minnesota	45009b4a16ef03ba8bb5b15665ef4469	United States	09d4bca31e2fd8b0f57f79f85ed42bd8
2f119d0de2a5ffc1fb7c856a68a37e1e	CountyAdminArea	12589146	Brown County, Nebraska	Brown_County,_Nebraska	-99.93042	42.46537	2955	Nebraska	20639b767478006218447b27e4b853cb	United States	09d4bca31e2fd8b0f57f79f85ed42bd8
bdc423a6f549fa1f7aa5597615269f22	CountyAdminArea	12589534	Brown County, Ohio	Brown_County,_Ohio	-83.86287	38.94695	43432	Ohio	4ec96adb9cc39333f3d2024b28f2503f	United States	09d4bca31e2fd8b0f57f79f85ed42bd8
69cf8834f7c1af6fe04cbd75b2a6f218	CountyAdminArea	12589851	Brown County, South Dakota	Brown_County,_South_Dakota	-98.35194	45.58949	38839	South Dakota	9b0faa6c816be68592b17dae38fd88b3	United States	09d4bca31e2fd8b0f57f79f85ed42bd8
91b6b46f9c0f10b7fb04964ee5557c6a	CountyAdminArea	12590031	Brown County, Texas	Brown_County,_Texas	-98.93601	31.76396	37864	Texas	86871c416a7dbed7e5cc229d143d8d82	United States	09d4bca31e2fd8b0f57f79f85ed42bd8
41f4f85ac109b7e86e23dcb1c162349b	CountyAdminArea	12590538	Brown County, Wisconsin	Brown_County,_Wisconsin	-88.00748	44.46016	264542	Wisconsin	5aeb407b7ca7f3fe0dc50003b1e0712f	United States	09d4bca31e2fd8b0f57f79f85ed42bd8
2d1a34ae02f08e4b403beddf409fc7de	CountyAdminArea	12589852	Brule County, South Dakota	Brule_County,_South_Dakota	-99.1319	43.71716	5297	South Dakota	9b0faa6c816be68592b17dae38fd88b3	United States	09d4bca31e2fd8b0f57f79f85ed42bd8
d3f5841f04ba23bb90e1b9f4256cea70	Country	23424773	Brunei	Brunei	114.59897	4.52513	442400				
014e721a001dbb9d37fd298ab2922459	CountyAdminArea	12589383	Brunswick County, North Carolina	Brunswick_County,_North_Carolina	-78.29558	34.10956	142820	North Carolina	5c520b852c5d7c99a71f1635ae84e1d2	United States	09d4bca31e2fd8b0f57f79f85ed42bd8
f08089e17fbb7e3bb76cebd3184f3c53	CountyAdminArea	12590319	Brunswick County, Virginia	Brunswick_County,_Virginia	-77.85097	36.78393	16231	Virginia	c8b287075ce4f11c834d2a0ada967ddc	United States	09d4bca31e2fd8b0f57f79f85ed42bd8
04635c776de4759a6b99eed46b422569	CountyAdminArea	12587884	Bryan County, Georgia	Bryan_County,_Georgia	-81.4598	31.98421	39627	Georgia	7f3097563d468719d72c6df98a69f6de	United States	09d4bca31e2fd8b0f57f79f85ed42bd8
a41a54b99de67b6a1bbbfb510e08e1ec	CountyAdminArea	12589621	Bryan County, Oklahoma	Bryan_County,_Oklahoma	-96.1902	33.92169	47995	Oklahoma	92aec0ba411203aa3a57aec94b108ed6	United States	09d4bca31e2fd8b0f57f79f85ed42bd8
b4b90b7d4cbd4ce77a1d8f2a864a7fd0	CountyAdminArea	12588281	Buchanan County, Iowa	Buchanan_County,_Iowa	-91.83956	42.47013	21175	Iowa	0daaf4a9abe3920c453a7f1f82a9bb19	United States	09d4bca31e2fd8b0f57f79f85ed42bd8
a1ddef6e0cb85adbe0ad06aaa3ec75d0	CountyAdminArea	12588976	Buchanan County, Missouri	Buchanan_County,_Missouri	-94.8575	39.67634	87364	Missouri	06fa309b609b7c8f7c39a88abe2d507c	United States	09d4bca31e2fd8b0f57f79f85ed42bd8
91887e683ed6160e28cf83ca8f907b7f	CountyAdminArea	12590320	Buchanan County, Virginia	Buchanan_County,_Virginia	-82.02428	37.2893	21004	Virginia	c8b287075ce4f11c834d2a0ada967ddc	United States	09d4bca31e2fd8b0f57f79f85ed42bd8
031433a822a6a901ae1956dccb0fcaa0	CountyAdminArea	12590321	Buckingham County, Virginia	Buckingham_County,_Virginia	-78.53642	37.5628	17148	Virginia	c8b287075ce4f11c834d2a0ada967ddc	United States	09d4bca31e2fd8b0f57f79f85ed42bd8
a2cb25302c709b52e87616ee37f869bd	CountyAdminArea	12589736	Bucks County, Pennsylvania	Bucks_County,_Pennsylvania	-75.10254	40.3285	628270	Pennsylvania	9ac31dfb3a2f5b994f4009eb0a3c0949	United States	09d4bca31e2fd8b0f57f79f85ed42bd8
c76c3a5ebe92d033aa15fea33f3dd4f9	CityTown	12590322	Buena Vista, Virginia	Buena_Vista,_Virginia	-79.35654	37.73781	6478	Virginia	c8b287075ce4f11c834d2a0ada967ddc	United States	09d4bca31e2fd8b0f57f79f85ed42bd8
737695936976ab301a2f1f1d16fe6633	CountyAdminArea	12588282	Buena Vista County, Iowa	Buena_Vista_County,_Iowa	-95.15093	42.7352	19620	Iowa	0daaf4a9abe3920c453a7f1f82a9bb19	United States	09d4bca31e2fd8b0f57f79f85ed42bd8
c3f3ac7db509e59bfd65364feea24e30	CountyAdminArea	12589147	Buffalo County, Nebraska	Buffalo_County,_Nebraska	-99.07409	40.84963	49659	Nebraska	20639b767478006218447b27e4b853cb	United States	09d4bca31e2fd8b0f57f79f85ed42bd8
737e5e73e7a86b011c909b0ca6fbd6fd	CountyAdminArea	12589853	Buffalo County, South Dakota	Buffalo_County,_South_Dakota	-99.25216	44.0647	1962	South Dakota	9b0faa6c816be68592b17dae38fd88b3	United States	09d4bca31e2fd8b0f57f79f85ed42bd8
3180dc47c593b3fdfcda82875038f4b8	CountyAdminArea	12590539	Buffalo County, Wisconsin	Buffalo_County,_Wisconsin	-91.80649	44.31118	13031	Wisconsin	5aeb407b7ca7f3fe0dc50003b1e0712f	United States	09d4bca31e2fd8b0f57f79f85ed42bd8
01a151debf2bfee8906f43f4342eb10b	Country	23424771	Bulgaria	Bulgaria	25.48312	42.7316	7917600				
20638569981fbf84f003811aa1c70a49	CountyAdminArea	12588490	Bullitt County, Kentucky	Bullitt_County,_Kentucky	-85.68759	37.96211	81676	Kentucky	980ceec1dba2d36c2ba867f683b47838	United States	09d4bca31e2fd8b0f57f79f85ed42bd8
c668d0e306a78129b4c5aa57a70f62af	CountyAdminArea	12587885	Bulloch County, Georgia	Bulloch_County,_Georgia	-81.73171	32.40308	79608	Georgia	7f3097563d468719d72c6df98a69f6de	United States	09d4bca31e2fd8b0f57f79f85ed42bd8
9b2bde169e2daa168fa213290d4bf3c9	CountyAdminArea	12587492	Bullock County, Alabama	Bullock_County,_Alabama	-85.70465	32.09272	10101	Alabama	213fe69502445ed67ae8b99d22838802	United States	09d4bca31e2fd8b0f57f79f85ed42bd8
03382909cf58c27d655ee8d4f81fe66c	CountyAdminArea	12589384	Buncombe County, North Carolina	Buncombe_County,_North_Carolina	-82.52863	35.62274	261191	North Carolina	5c520b852c5d7c99a71f1635ae84e1d2	United States	09d4bca31e2fd8b0f57f79f85ed42bd8
89429787d860f1c4467c4a7d58262885	CountyAdminArea	12588083	Bureau County, Illinois	Bureau_County,_Illinois	-89.51299	41.36691	32628	Illinois	66c2b329479ee151b4c6b257c0b7a9b7	United States	09d4bca31e2fd8b0f57f79f85ed42bd8
e862acb0586598e241c7dacd766b175d	CountyAdminArea	12587886	Burke County, Georgia	Burke_County,_Georgia	-81.92895	33.05038	22383	Georgia	7f3097563d468719d72c6df98a69f6de	United States	09d4bca31e2fd8b0f57f79f85ed42bd8
42984861860c6015850b2c9779e83610	CountyAdminArea	12589385	Burke County, North Carolina	Burke_County,_North_Carolina	-81.67537	35.77907	90485	North Carolina	5c520b852c5d7c99a71f1635ae84e1d2	United States	09d4bca31e2fd8b0f57f79f85ed42bd8
0a84f65673838e210b45dce0ce773b0c	CountyAdminArea	12589480	Burke County, North Dakota	Burke_County,_North_Dakota	-102.48058	48.77275	2115	North Dakota	3971735868c1886348955beb9c7d72bd	United States	09d4bca31e2fd8b0f57f79f85ed42bd8
dfc4327c51fe1e82827c1eb7b0d23a42	Country	23424978	Burkina Faso	Burkina_Faso	-1.55676	12.24184	20107509				
c42e2d07a57d6040cc1ef282e63d94f3	CountyAdminArea	12589481	Burleigh County, North Dakota	Burleigh_County,_North_Dakota	-100.52031	46.9806	95626	North Dakota	3971735868c1886348955beb9c7d72bd	United States	09d4bca31e2fd8b0f57f79f85ed42bd8
b2ba369404458275ffb16f37d3ae5a08	CountyAdminArea	12590032	Burleson County, Texas	Burleson_County,_Texas	-96.61767	30.51321	18443	Texas	86871c416a7dbed7e5cc229d143d8d82	United States	09d4bca31e2fd8b0f57f79f85ed42bd8
addf012cd194aaa260368bd6c48eb792	CountyAdminArea	12589260	Burlington County, New Jersey	Burlington_County,_New_Jersey	-74.72449	39.86017	445349	New Jersey	5ac9ad692818005c50aae8afe95861d6	United States	09d4bca31e2fd8b0f57f79f85ed42bd8
15e28505dc7d398fcc4d85f44515ea90	CountyAdminArea	12590033	Burnet County, Texas	Burnet_County,_Texas	-98.1441	30.73068	48155	Texas	86871c416a7dbed7e5cc229d143d8d82	United States	09d4bca31e2fd8b0f57f79f85ed42bd8
f64005a4426007eb3ec8f8a7e1406cf7	CountyAdminArea	12590540	Burnett County, Wisconsin	Burnett_County,_Wisconsin	-92.45908	45.89863	15414	Wisconsin	5aeb407b7ca7f3fe0dc50003b1e0712f	United States	09d4bca31e2fd8b0f57f79f85ed42bd8
183eb14fd657920713b372da783b898c	CountyAdminArea	12589148	Burt County, Nebraska	Burt_County,_Nebraska	-96.30994	41.86503	6459	Nebraska	20639b767478006218447b27e4b853cb	United States	09d4bca31e2fd8b0f57f79f85ed42bd8
28765464efe1b6583610335965b4d75a	Country	23424774	Burundi	Burundi	29.92039	-3.38791	7596700				
0ccae1c8732add5b6badd0935710a4b2	CountyAdminArea	12587493	Butler County, Alabama	Butler_County,_Alabama	-86.67338	31.74421	19448	Alabama	213fe69502445ed67ae8b99d22838802	United States	09d4bca31e2fd8b0f57f79f85ed42bd8
540dd191f4b2caa0f1165ffdf241892f	CountyAdminArea	12588283	Butler County, Iowa	Butler_County,_Iowa	-92.79058	42.73165	14439	Iowa	0daaf4a9abe3920c453a7f1f82a9bb19	United States	09d4bca31e2fd8b0f57f79f85ed42bd8
10e046fff919626ac54012bb91751618	CountyAdminArea	12588378	Butler County, Kansas	Butler_County,_Kansas	-96.83805	37.78157	66911	Kansas	7c0e2b92f76ed5847aa48a3a1e70ae7d	United States	09d4bca31e2fd8b0f57f79f85ed42bd8
a760a3bb3d4b63ea2f646b2451d8c190	CountyAdminArea	12588491	Butler County, Kentucky	Butler_County,_Kentucky	-86.67198	37.19738	12879	Kentucky	980ceec1dba2d36c2ba867f683b47838	United States	09d4bca31e2fd8b0f57f79f85ed42bd8
4003c0173c92159900a8b8635ea81b69	CountyAdminArea	12588977	Butler County, Missouri	Butler_County,_Missouri	-90.40724	36.71242	42478	Missouri	06fa309b609b7c8f7c39a88abe2d507c	United States	09d4bca31e2fd8b0f57f79f85ed42bd8
dad5b911683eca0cb02edb4683da5593	CountyAdminArea	12589149	Butler County, Nebraska	Butler_County,_Nebraska	-97.1371	41.2505	8016	Nebraska	20639b767478006218447b27e4b853cb	United States	09d4bca31e2fd8b0f57f79f85ed42bd8
29b1d7666586d84e4706ec2aafd5aeb4	CountyAdminArea	12589535	Butler County, Ohio	Butler_County,_Ohio	-84.57573	39.44098	383134	Ohio	4ec96adb9cc39333f3d2024b28f2503f	United States	09d4bca31e2fd8b0f57f79f85ed42bd8
9696f061b2066a2694425268ac642455	CountyAdminArea	12589737	Butler County, Pennsylvania	Butler_County,_Pennsylvania	-79.92749	40.92128	187853	Pennsylvania	9ac31dfb3a2f5b994f4009eb0a3c0949	United States	09d4bca31e2fd8b0f57f79f85ed42bd8
53724c7a80e22b059e60bfca5079ed73	CountyAdminArea	12587673	Butte County, California	Butte_County,_California	-121.57429	39.7227	219186	California	356779a9a1696714480f57fa3fb66d4c	United States	09d4bca31e2fd8b0f57f79f85ed42bd8
cdb799ac7e6241ed0bd74dd261283f46	CountyAdminArea	12588045	Butte County, Idaho	Butte_County,_Idaho	-113.24656	43.75936	2597	Idaho	47b231eae4bf87fa405e34eb9273b741	United States	09d4bca31e2fd8b0f57f79f85ed42bd8
435f2764831bae1d0717dbd4fefd0f10	CountyAdminArea	12589854	Butte County, South Dakota	Butte_County,_South_Dakota	-103.50756	44.89248	10429	South Dakota	9b0faa6c816be68592b17dae38fd88b3	United States	09d4bca31e2fd8b0f57f79f85ed42bd8
59003514614124150f8bcafbb79f901b	CountyAdminArea	12587887	Butts County, Georgia	Butts_County,_Georgia	-83.96549	33.31542	24936	Georgia	7f3097563d468719d72c6df98a69f6de	United States	09d4bca31e2fd8b0f57f79f85ed42bd8
cdefa46002a5b9e8bd3bee9580cce7e2	StateAdminArea		Béni Mellal-Khénifra	B%C3%A9ni_Mellal-Kh%C3%A9nifra	-6.35	32.46	2520776			Morocco	4d4a1722d8e85909a576da2c42878ff0
a32abbc012bd37afa2816bce4b21a3e8	CountyAdminArea	12589386	Cabarrus County, North Carolina	Cabarrus_County,_North_Carolina	-80.54123	35.34654	216453	North Carolina	5c520b852c5d7c99a71f1635ae84e1d2	United States	09d4bca31e2fd8b0f57f79f85ed42bd8
5fe8235739f9becafc5d5353dd3e9365	CountyAdminArea	12590484	Cabell County, West Virginia	Cabell_County,_West_Virginia	-82.27749	38.41317	91945	West Virginia	40165c0d1d578a7bbded085c5def3f48	United States	09d4bca31e2fd8b0f57f79f85ed42bd8
ff43e1c046f26750673e1846b3c8b213	CountyAdminArea	12590263	Cache County, Utah	Cache_County,_Utah	-111.78385	41.6842	128289	Utah	6a382f5bfa3db109c81ec4adbf70ff26	United States	09d4bca31e2fd8b0f57f79f85ed42bd8
033217fe5210b2a35b1ad5663d6fe7f8	CountyAdminArea	12589622	Caddo County, Oklahoma	Caddo_County,_Oklahoma	-98.35748	35.20323	28762	Oklahoma	92aec0ba411203aa3a57aec94b108ed6	United States	09d4bca31e2fd8b0f57f79f85ed42bd8
9243e83a824e3337169bf5b08c33a43f	CountyAdminArea	12588604	Caddo Parish, Louisiana	Caddo_Parish,_Louisiana	-93.90107	32.60764	240204	Louisiana	39da6b7e3479522718668deaf7e6f304	United States	09d4bca31e2fd8b0f57f79f85ed42bd8
cb09c754fad3673f7d34c75e63fad18c	StateAdminArea	7153332	Calabria	Calabria	16.418	39.0299	1993274			Italy	1007e1b7f894dfbf72a0eaa80f3bc57e
0684727902f440afbcd935c0c485b788	CountyAdminArea	12587674	Calaveras County, California	Calaveras_County,_California	-120.50673	38.17138	45905	California	356779a9a1696714480f57fa3fb66d4c	United States	09d4bca31e2fd8b0f57f79f85ed42bd8
cefd56b2446ec30477a102eb6d901aa8	CountyAdminArea	12588605	Calcasieu Parish, Louisiana	Calcasieu_Parish,_Louisiana	-93.32647	30.26425	203436	Louisiana	39da6b7e3479522718668deaf7e6f304	United States	09d4bca31e2fd8b0f57f79f85ed42bd8
ca411a3c102185a11cbecc79918b1d41	CountyAdminArea	12588492	Caldwell County, Kentucky	Caldwell_County,_Kentucky	-87.88716	37.16518	12747	Kentucky	980ceec1dba2d36c2ba867f683b47838	United States	09d4bca31e2fd8b0f57f79f85ed42bd8
0dbb9f4c163b334bcc8dea8098a081d9	CountyAdminArea	12588978	Caldwell County, Missouri	Caldwell_County,_Missouri	-93.9833	39.65671	9020	Missouri	06fa309b609b7c8f7c39a88abe2d507c	United States	09d4bca31e2fd8b0f57f79f85ed42bd8
dcc8ee3a1873c67cdeeffd7de09b4789	CountyAdminArea	12589387	Caldwell County, North Carolina	Caldwell_County,_North_Carolina	-81.56997	35.93979	82178	North Carolina	5c520b852c5d7c99a71f1635ae84e1d2	United States	09d4bca31e2fd8b0f57f79f85ed42bd8
b495d6c15e21411a11bd1755245f44eb	CountyAdminArea	12590034	Caldwell County, Texas	Caldwell_County,_Texas	-97.60753	29.85113	43664	Texas	86871c416a7dbed7e5cc229d143d8d82	United States	09d4bca31e2fd8b0f57f79f85ed42bd8
a5f410cd9f00fbacb3a7385bd6c05748	CountyAdminArea	12588606	Caldwell Parish, Louisiana	Caldwell_Parish,_Louisiana	-92.09009	32.10208	9918	Louisiana	39da6b7e3479522718668deaf7e6f304	United States	09d4bca31e2fd8b0f57f79f85ed42bd8
cc6f0741efdd4ba1c6f66f1310c5e6b9	CountyAdminArea	12590292	Caledonia County, Vermont	Caledonia_County,_Vermont	-72.13566	44.46285	29993	Vermont	de30bd840230da1493819f803aff6e9e	United States	09d4bca31e2fd8b0f57f79f85ed42bd8
555ba6ccd9f3e05f5debbca3c4c37478	CountyAdminArea	12587494	Calhoun County, Alabama	Calhoun_County,_Alabama	-85.83777	33.76226	113605	Alabama	213fe69502445ed67ae8b99d22838802	United States	09d4bca31e2fd8b0f57f79f85ed42bd8
0619c6c72b859311946130685ec5b699	CountyAdminArea	12587601	Calhoun County, Arkansas	Calhoun_County,_Arkansas	-92.54367	33.53581	5189	Arkansas	46aaf459104e9ce5d45eaa017ac349c2	United States	09d4bca31e2fd8b0f57f79f85ed42bd8
650867d4177a5547530af059c9522245	CountyAdminArea	12587809	Calhoun County, Florida	Calhoun_County,_Florida	-85.16134	30.40389	14105	Florida	eeaca0ed2f6a35370c77de30792debb8	United States	09d4bca31e2fd8b0f57f79f85ed42bd8
fa7fbeab88ae4b484f1c3fe3826d687d	CountyAdminArea	12587888	Calhoun County, Georgia	Calhoun_County,_Georgia	-84.62022	31.53571	6189	Georgia	7f3097563d468719d72c6df98a69f6de	United States	09d4bca31e2fd8b0f57f79f85ed42bd8
b17196b0bc1ea4121c69f73936181c4b	CountyAdminArea	12588084	Calhoun County, Illinois	Calhoun_County,_Illinois	-90.69385	39.13435	4739	Illinois	66c2b329479ee151b4c6b257c0b7a9b7	United States	09d4bca31e2fd8b0f57f79f85ed42bd8
9386a9f8f733a6c654366176e99d0a05	CountyAdminArea	12588284	Calhoun County, Iowa	Calhoun_County,_Iowa	-94.65588	42.38472	9668	Iowa	0daaf4a9abe3920c453a7f1f82a9bb19	United States	09d4bca31e2fd8b0f57f79f85ed42bd8
42b5a583fdc0c8e0e1a75007e87c89f5	CountyAdminArea	12588726	Calhoun County, Michigan	Calhoun_County,_Michigan	-85.00453	42.24624	134159	Michigan	8eadc5d3e1f1919c527b6d865e226a88	United States	09d4bca31e2fd8b0f57f79f85ed42bd8
cb3d50619e65dd692165e467c2dcc581	CountyAdminArea	12588890	Calhoun County, Mississippi	Calhoun_County,_Mississippi	-89.32377	33.94187	14361	Mississippi	14c5492ce2fe855f408481fdbd13f7a6	United States	09d4bca31e2fd8b0f57f79f85ed42bd8
e9b009821b2c97337227ea1ebe1000a4	CountyAdminArea	12589808	Calhoun County, South Carolina	Calhoun_County,_South_Carolina	-80.77577	33.67258	14553	South Carolina	aeeb87d118446317ff4f4d5e8d19283f	United States	09d4bca31e2fd8b0f57f79f85ed42bd8
dd0890ca732308790284da04b76f4fe9	CountyAdminArea	12590035	Calhoun County, Texas	Calhoun_County,_Texas	-96.65178	28.52245	21290	Texas	86871c416a7dbed7e5cc229d143d8d82	United States	09d4bca31e2fd8b0f57f79f85ed42bd8
9a3e1c089ad07ee45501bb45c57d3d3f	CountyAdminArea	12590485	Calhoun County, West Virginia	Calhoun_County,_West_Virginia	-81.13211	38.82865	7109	West Virginia	40165c0d1d578a7bbded085c5def3f48	United States	09d4bca31e2fd8b0f57f79f85ed42bd8
356779a9a1696714480f57fa3fb66d4c	StateAdminArea	2347563	California	California	-119.61038	37.24609	39512223			United States	09d4bca31e2fd8b0f57f79f85ed42bd8
0239caebe976a7a0e9bd0f18f1df554d	CountyAdminArea	12590036	Callahan County, Texas	Callahan_County,_Texas	-99.37293	32.29732	13943	Texas	86871c416a7dbed7e5cc229d143d8d82	United States	09d4bca31e2fd8b0f57f79f85ed42bd8
9f5a621e6af6e1086594291e6fc415d4	CountyAdminArea	12588979	Callaway County, Missouri	Callaway_County,_Missouri	-91.92993	38.81105	44743	Missouri	06fa309b609b7c8f7c39a88abe2d507c	United States	09d4bca31e2fd8b0f57f79f85ed42bd8
086966b3609d29900c2bddf59c405785	CountyAdminArea	12588493	Calloway County, Kentucky	Calloway_County,_Kentucky	-88.26083	36.62373	39001	Kentucky	980ceec1dba2d36c2ba867f683b47838	United States	09d4bca31e2fd8b0f57f79f85ed42bd8
a13f234efe03782df9807a7e59c02e20	CountyAdminArea	12590541	Calumet County, Wisconsin	Calumet_County,_Wisconsin	-88.22293	44.06781	50089	Wisconsin	5aeb407b7ca7f3fe0dc50003b1e0712f	United States	09d4bca31e2fd8b0f57f79f85ed42bd8
9023daaa0bab175dea01f9d51b571cd8	CountyAdminArea	12588680	Calvert County, Maryland	Calvert_County,_Maryland	-76.5453	38.53855	92525	Maryland	11ea71f253acf02a2d126a0901e765a7	United States	09d4bca31e2fd8b0f57f79f85ed42bd8
554f7d333afa479c53d56ce34b0a7083	CountyAdminArea	12588046	Camas County, Idaho	Camas_County,_Idaho	-114.73066	43.52835	1106	Idaho	47b231eae4bf87fa405e34eb9273b741	United States	09d4bca31e2fd8b0f57f79f85ed42bd8
06c7a3c3a3344a62864b951aec4df830	Country	23424776	Cambodia	Cambodia	104.98386	12.54773	13382400				
e0d7ebe2bdbfe40233357038311ee6d9	CountyAdminArea	12589738	Cambria County, Pennsylvania	Cambria_County,_Pennsylvania	-78.7023	40.48432	130192	Pennsylvania	9ac31dfb3a2f5b994f4009eb0a3c0949	United States	09d4bca31e2fd8b0f57f79f85ed42bd8
bed971bf21876461ad71e0bfc5044855	CountyAdminArea	12587889	Camden County, Georgia	Camden_County,_Georgia	-81.66929	30.93908	54666	Georgia	7f3097563d468719d72c6df98a69f6de	United States	09d4bca31e2fd8b0f57f79f85ed42bd8
47112975eeff81639a83d600f2bc762d	CountyAdminArea	12588980	Camden County, Missouri	Camden_County,_Missouri	-92.74413	38.03488	46305	Missouri	06fa309b609b7c8f7c39a88abe2d507c	United States	09d4bca31e2fd8b0f57f79f85ed42bd8
c70c856a2e2f21e8812c0a28a366a86b	CountyAdminArea	12589261	Camden County, New Jersey	Camden_County,_New_Jersey	-74.93833	39.8021	506471	New Jersey	5ac9ad692818005c50aae8afe95861d6	United States	09d4bca31e2fd8b0f57f79f85ed42bd8
1a6aa4ed682568d8daaae586aee73973	CountyAdminArea	12589388	Camden County, North Carolina	Camden_County,_North_Carolina	-76.04641	36.3574	10867	North Carolina	5c520b852c5d7c99a71f1635ae84e1d2	United States	09d4bca31e2fd8b0f57f79f85ed42bd8
7161ee0cc8a072886a389de324d502fa	CountyAdminArea	12589739	Cameron County, Pennsylvania	Cameron_County,_Pennsylvania	-78.20478	41.41761	4447	Pennsylvania	9ac31dfb3a2f5b994f4009eb0a3c0949	United States	09d4bca31e2fd8b0f57f79f85ed42bd8
e17c9033c6f7f8c77afde9ab6077dda9	CountyAdminArea	12590037	Cameron County, Texas	Cameron_County,_Texas	-97.50377	26.12387	423163	Texas	86871c416a7dbed7e5cc229d143d8d82	United States	09d4bca31e2fd8b0f57f79f85ed42bd8
8bcdfb105f5520bd1df9c15a1e78663a	CountyAdminArea	12588607	Cameron Parish, Louisiana	Cameron_Parish,_Louisiana	-92.97962	29.81596	6973	Louisiana	39da6b7e3479522718668deaf7e6f304	United States	09d4bca31e2fd8b0f57f79f85ed42bd8
4be25f9d27da71d4e98775668b5b12af	Country	23424785	Cameroon	Cameroon	12.34344	7.36529	16341000				
bccd572d9bfa8ab596e799ae3ee56e92	CountyAdminArea	12590038	Camp County, Texas	Camp_County,_Texas	-94.93715	32.98986	13094	Texas	86871c416a7dbed7e5cc229d143d8d82	United States	09d4bca31e2fd8b0f57f79f85ed42bd8
cc817969d60833fd7c3c7461797d9b6d	StateAdminArea	7153333	Campania	Campania	14.7842	40.7487	5869029			Italy	1007e1b7f894dfbf72a0eaa80f3bc57e
b4aa744c83b19a2c7cdddd47715ace15	CountyAdminArea	12588494	Campbell County, Kentucky	Campbell_County,_Kentucky	-84.36903	38.96388	93584	Kentucky	980ceec1dba2d36c2ba867f683b47838	United States	09d4bca31e2fd8b0f57f79f85ed42bd8
dfb7caff2a68265295d3cb2e17ee8853	CountyAdminArea	12589855	Campbell County, South Dakota	Campbell_County,_South_Dakota	-100.11464	45.76845	1376	South Dakota	9b0faa6c816be68592b17dae38fd88b3	United States	09d4bca31e2fd8b0f57f79f85ed42bd8
31c761324a445ce46fce65158199243d	CountyAdminArea	12589918	Campbell County, Tennessee	Campbell_County,_Tennessee	-84.13815	36.38475	39842	Tennessee	a5c53b081bf565526eb3779db999becf	United States	09d4bca31e2fd8b0f57f79f85ed42bd8
5103332d98abba09a17d90d92f33e142	CountyAdminArea	12590323	Campbell County, Virginia	Campbell_County,_Virginia	-79.13375	37.2169	54885	Virginia	c8b287075ce4f11c834d2a0ada967ddc	United States	09d4bca31e2fd8b0f57f79f85ed42bd8
bccd960722389a73342b15dd15c08a46	CountyAdminArea	12590608	Campbell County, Wyoming	Campbell_County,_Wyoming	-105.54685	44.24766	46341	Wyoming	823ee6401883db6f9e5865f51c77d97c	United States	09d4bca31e2fd8b0f57f79f85ed42bd8
445d337b5cd5de476f99333df6b0c2a7	Country	23424775	Canada	Canada	-98.30897	56.95468	37894799				
e0e0adf077ac6581bc8ffaa8651b9e9e	CountyAdminArea	12589623	Canadian County, Oklahoma	Canadian_County,_Oklahoma	-97.99219	35.52355	148306	Oklahoma	92aec0ba411203aa3a57aec94b108ed6	United States	09d4bca31e2fd8b0f57f79f85ed42bd8
dc3bb29135ba4b09e76d1c1925790a5d	StateAdminArea	12578031	Canary Islands	Canary_Islands	-16.52266	28.29328	2153389			Spain	907eba32d950bfab68227fd7ea22999b
6aa36ebb647e62892fc69ece4d4e05e4	CountyAdminArea	12587890	Candler County, Georgia	Candler_County,_Georgia	-82.08654	32.41381	10803	Georgia	7f3097563d468719d72c6df98a69f6de	United States	09d4bca31e2fd8b0f57f79f85ed42bd8
6daf0c7e1ee5658adad6070384197c3c	CountyAdminArea	12589919	Cannon County, Tennessee	Cannon_County,_Tennessee	-86.04469	35.80872	14678	Tennessee	a5c53b081bf565526eb3779db999becf	United States	09d4bca31e2fd8b0f57f79f85ed42bd8
403ec7ac6864b855d6111ddb002d1051	StateAdminArea		Cantabria	Cantabria	-4.0	43.333332				Spain	907eba32d950bfab68227fd7ea22999b
06263b8d6db0df452a3e235de61f8b69	StateAdminArea	2347083	Canton of Aargau	Canton_of_Aargau	8.08404	47.37915	550900			Switzerland	3ad08396dc5afa78f34f548eea3c1d64
65ef6787094ace636764d0240d9512b1	StateAdminArea	2347084	Canton of Appenzell Ausserrhoden	Canton_of_Appenzell_Ausserrhoden	9.46896	47.35768	53200			Switzerland	3ad08396dc5afa78f34f548eea3c1d64
55b6cb679883677182c4ff709acd1b90	StateAdminArea		Canton of Basel-Landschaft	Canton_of_Basel-Landschaft	7.733333	47.11667					
682dfaf55f7a667f3e4bc753c1db4511	StateAdminArea	2347086	Canton of Basel-Stadt	Canton_of_Basel-Stadt	7.64819	47.56011	186700			Switzerland	3ad08396dc5afa78f34f548eea3c1d64
42a38626605a643b32d3ee41babd2975	StateAdminArea	2347087	Canton of Bern	Canton_of_Bern	7.65805	46.83585	947100			Switzerland	3ad08396dc5afa78f34f548eea3c1d64
14cedc8f352d58d7a49437a4621c24ee	StateAdminArea	2347088	Canton of Fribourg	Canton_of_Fribourg	7.08755	46.72228	239100			Switzerland	3ad08396dc5afa78f34f548eea3c1d64
a370245f17c4831dfb423be352e02556	StateAdminArea	2347089	Canton of Geneva	Canton_of_Geneva	6.13302	46.2232	414300			Switzerland	3ad08396dc5afa78f34f548eea3c1d64
1133022204163e04bf3c474925965fc4	StateAdminArea	2347090	Canton of Glarus	Canton_of_Glarus	9.06207	46.98518	38300			Switzerland	3ad08396dc5afa78f34f548eea3c1d64
d8338e039d7326789cdfe77a14666967	StateAdminArea	2347091	Canton of Grisons	Canton_of_Grisons	9.57142	46.61724	185700			Switzerland	3ad08396dc5afa78f34f548eea3c1d64
35b358bcdd83e5e23f756ba484222ecc	StateAdminArea	2347108	Canton of Jura	Canton_of_Jura	7.19955	47.32742	69100			Switzerland	3ad08396dc5afa78f34f548eea3c1d64
785484a9d496e91d153235833434a979	StateAdminArea	2347093	Canton of Lucerne	Canton_of_Lucerne	8.17523	47.0311	350600			Switzerland	3ad08396dc5afa78f34f548eea3c1d64
ccf2e5c7e335a30f6cad91bb151cf7e9	StateAdminArea		Canton of Neuchâtel	Canton_of_Neuch%C3%A2tel	6.783333	46.983334					
9ffb0eb6728379416b88d428079d0d79	StateAdminArea	2347095	Canton of Nidwalden	Canton_of_Nidwalden	8.39661	46.8958	38600			Switzerland	3ad08396dc5afa78f34f548eea3c1d64
ebcd75c4d34d767bb82cd09c5f5c4f80	StateAdminArea	2347096	Canton of Obwalden	Canton_of_Obwalden	8.2055	46.86705	32700			Switzerland	3ad08396dc5afa78f34f548eea3c1d64
7b1998a82a4d01dbaf82fee4422132bd	StateAdminArea	2347098	Canton of Schaffhausen	Canton_of_Schaffhausen	8.57289	47.72327	73400			Switzerland	3ad08396dc5afa78f34f548eea3c1d64
cc2c1b817af1fd5f6d34e8d6ec85f94a	StateAdminArea	2347099	Canton of Schwyz	Canton_of_Schwyz	8.69675	47.05406	131400			Switzerland	3ad08396dc5afa78f34f548eea3c1d64
75dbe5d071b0ff267acaca8b8cc74b8e	StateAdminArea	2347100	Canton of Solothurn	Canton_of_Solothurn	7.77478	47.28562	245500			Switzerland	3ad08396dc5afa78f34f548eea3c1d64
